original_address,lat,lon,formatted,name,district,street,postcode,suburb,county,city,state,country,confidence_city_level,country_code,confidence_street_level,confidence,attribution,attribution_license,attribution_url
"Gjersø bro, Mosseveien, Norway",59.27517,10.27515,"Gjersø, Sandefjord, Vestfold og Telemark, Norway",Gjersø,,,,,,Sandefjord,Vestfold og Telemark,Norway,,no,,0,,CC BY 4.0,https://www.geonames.org/datasources/
"Gjerstad, Norway",58.8782545,8.979742055383706,"Gjerstad, Norway",,,,,,Agder,Gjerstad,,Norway,1,no,,1,© OpenStreetMap contributors,Open Database License,https://www.openstreetmap.org/copyright
"Gjettum, Norway",59.9072563,10.5283887,"Gjettum, Sandvika, Norway",Gjettum,,,1346,Gjettum,Akershus,Sandvika,,Norway,1,no,,1,© OpenStreetMap contributors,Open Database License,https://www.openstreetmap.org/copyright
"Gjøvik, Norway",60.87216165,10.503886379493999,"Gjøvik, Norway",,,,,,Innlandet,Gjøvik,,Norway,1,no,,1,© OpenStreetMap contributors,Open Database License,https://www.openstreetmap.org/copyright
"Glomma, Norway",59.7795306,11.1519556,"Glomma, Enebakk, Norway",Glomma,,,1912,Glomma,Akershus,Enebakk,,Norway,1,no,,1,© OpenStreetMap contributors,Open Database License,https://www.openstreetmap.org/copyright
"Godøy, Norway",62.4686687,6.0162619,"6055 Godøy (Godøy), Norway",Godøy,,,6055,,Møre og Romsdal,Godøy,,Norway,1,no,,1,© OpenStreetMap contributors,Open Database License,https://www.openstreetmap.org/copyright
"Granberget, Norway",61.7456111,11.7500333,"Granberget (Granberget), Norway",Granberget,,,,,Innlandet,Granberget,,Norway,1,no,,1,© OpenStreetMap contributors,Open Database License,https://www.openstreetmap.org/copyright
"Grand Canaria Playa del I, Norway",,,,,,,,,,,,,,,,,,,
"Granollers, Spania, Norway",,,,,,,,,,,,,,,,,,,
"Granrudmoen, Øyer, Norway",61.2422669,10.4389639,"2636 Hafjell, Norway",Hafjell,,,2636,,Innlandet,Hafjell,,Norway,1,no,,0.5,© OpenStreetMap contributors,Open Database License,https://www.openstreetmap.org/copyright
"Graverdalen i Valebø, Norway",59.3129215,9.3322542,"Valebø (Valebø), Norway",Valebø,,,,,Telemark,Valebø,,Norway,1,no,,0.5,© OpenStreetMap contributors,Open Database License,https://www.openstreetmap.org/copyright
"Grefsen, Norway",59.9523361,10.7866944,"Grefsen, Oslo, Norway",Grefsen,,,0489,Grefsen,,Oslo,,Norway,1,no,,1,© OpenStreetMap contributors,Open Database License,https://www.openstreetmap.org/copyright
"Grensevn. - Økervn., Norway",,,,,,,,,,,,,,,,,,,
"Grensevn., Norway",,,,,,,,,,,,,,,,,,,
"Gressbakken, Norway",,,,,,,,,,,,,,,,,,,
"Gressviksletta, Norway",,,,,,,,,,,,,,,,,,,
"Grimstad, Norway",58.2839967,8.712829118742853,"Grimstad, Norway",,,,,,Agder,Grimstad,,Norway,1,no,,1,© OpenStreetMap contributors,Open Database License,https://www.openstreetmap.org/copyright
"Griniveien, Norway",59.9475221,10.6440401,"Griniveien, 0760 Oslo, Norway",Griniveien,,Griniveien,0760,Røa,,Oslo,,Norway,,no,,1,© OpenStreetMap contributors,Open Database License,https://www.openstreetmap.org/copyright
"Grønli, Maura, Norway",60.25105,11.0426555,"Grønli, Maura, Norway",Grønli,,,2032,Grønli,Akershus,Maura,,Norway,1,no,,1,© OpenStreetMap contributors,Open Database License,https://www.openstreetmap.org/copyright
"Grostøl v/Odda, Norway",59.2168056,6.2923002,"Grøvstøl, Rogaland, Norway",Grøvstøl,,,,,Rogaland,Grøvstøl,Rogaland,Norway,,no,,0,© OpenStreetMap contributors,Open Database License,https://www.openstreetmap.org/copyright
"Grostølsnuten, Seljestad, Norway",59.89784,6.54955,"Grostølsnuten, Ullensvang, Vestland, Norway",Grostølsnuten,,,,,Vestland,Ullensvang,Vestland,Norway,,no,,0,© OpenStreetMap contributors,Open Database License,https://www.openstreetmap.org/copyright
"Grue Finnskog, Norway",60.4181189,12.4035537,"Grue Finnskog (Grue Finnskog), Norway",Grue Finnskog,,,,,Innlandet,Grue Finnskog,,Norway,1,no,,1,© OpenStreetMap contributors,Open Database License,https://www.openstreetmap.org/copyright
"Grunnreis, Sørreisa, Norway",69.1790326,18.0668921,"Grunnreisa (Grunnreisa), Norway",Grunnreisa,,,,,Troms,Grunnreisa,,Norway,1,no,,0.5,© OpenStreetMap contributors,Open Database License,https://www.openstreetmap.org/copyright
"Grunnreis, Sørreisa., Norway",69.1790326,18.0668921,"Grunnreisa (Grunnreisa), Norway",Grunnreisa,,,,,Troms,Grunnreisa,,Norway,1,no,,0.5,© OpenStreetMap contributors,Open Database License,https://www.openstreetmap.org/copyright
"Gudbrandsdalen, Norway",59.6727667,11.0673417,"Gudbrandsdalen, Indre Østfold, Norway",Gudbrandsdalen,,,1821,Gudbrandsdalen,Østfold,Indre Østfold,,Norway,1,no,,1,© OpenStreetMap contributors,Open Database License,https://www.openstreetmap.org/copyright
"Gulskagen, Norway",,,,,,,,,,,,,,,,,,,
"Hadeland, Norway",60.00317455,10.632602213515423,"Hadeland, Oslo, Norway",Hadeland,,,,Hadeland,,Oslo,,Norway,,no,,1,© OpenStreetMap contributors,Open Database License,https://www.openstreetmap.org/copyright
"Haga, Norway",60.056249,11.3836384,"1929 Haga (Haga), Norway",Haga,,,1929,,Akershus,Haga,,Norway,1,no,,1,© OpenStreetMap contributors,Open Database License,https://www.openstreetmap.org/copyright
"Hagabru, Norway",,,,,,,,,,,,,,,,,,,
"Hagafoss, Geilo, Norway",60.5337182,8.2089732,"3580 Geilo (Geilo), Norway",Geilo,,,3580,,Buskerud,Geilo,,Norway,1,no,,1,© OpenStreetMap contributors,Open Database License,https://www.openstreetmap.org/copyright
"Hagatjern, Norway",59.7286346,10.048122318497384,"Hagatjern, Drammen, Buskerud, Norway",Hagatjern,Mjøndalen,,,,Buskerud,Drammen,,Norway,1,no,,1,© OpenStreetMap contributors,Open Database License,https://www.openstreetmap.org/copyright
"Hakvåg, 8090 Våg, Norway",67.9422,15.22451,"Hakvåg, Steigen, Nordland, Norway",Hakvåg,,,,,,Steigen,Nordland,Norway,,no,,0,,CC BY 4.0,https://www.geonames.org/datasources/
"Halden Gård, Dagali, Norway",60.406027,8.440761,"Hol (Dagali), Viken, Norway",,Hol,,,,,Dagali,Viken,Norway,1,no,,0.5,,,https://www.whosonfirst.org/docs/licenses/
"Halden, Norway",59.0680555,11.537191002239753,"Halden, Norway",,,,,,Østfold,Halden,,Norway,1,no,,1,© OpenStreetMap contributors,Open Database License,https://www.openstreetmap.org/copyright
"Hallingdal, Norway",60.6603622,10.7875265,"Hallingdal, Østre Toten, Norway",Hallingdal,,,2850,Hallingdal,Innlandet,Østre Toten,,Norway,1,no,,1,© OpenStreetMap contributors,Open Database License,https://www.openstreetmap.org/copyright
"Halsnøy kloster, Norway",59.7975197,5.656312,"5455 Halsnøy kloster (Halsnøy kloster), Norway",Halsnøy kloster,,,5455,,Vestland,Halsnøy kloster,,Norway,1,no,,1,© OpenStreetMap contributors,Open Database License,https://www.openstreetmap.org/copyright
"Haltug, Norway",,,,,,,,,,,,,,,,,,,
"Hamar, Norway",61.0014937,11.16479641006573,"Hamar, Norway",,,,,,Innlandet,Hamar,,Norway,1,no,,1,© OpenStreetMap contributors,Open Database License,https://www.openstreetmap.org/copyright
"Hamburg - Costa Rica, Norway",59.6172,10.7682028,"Hamborg, Vestby, Norway",Hamborg,,,1543,Hamborg,Akershus,Vestby,,Norway,0.7714285714285714,no,,0.7714285714285714,© OpenStreetMap contributors,Open Database License,https://www.openstreetmap.org/copyright
"Hammerstad, Eidsvoll, Norway",60.3315613,11.2147012,"Hammerstad, Eidsvoll, Norway",Hammerstad,,,2073,Hammerstad,Akershus,Eidsvoll,,Norway,1,no,,0.5,© OpenStreetMap contributors,Open Database License,https://www.openstreetmap.org/copyright
"Hammerstadkrysset, Norway",,,,,,,,,,,,,,,,,,,
"Hans Hansens gt. Skien, Norway",59.20962,9.60897,"Skien (Skien), Vestfold og Telemark, Norway",,Skien,,,,,Skien,Vestfold og Telemark,Norway,1,no,,0.5,,,https://www.whosonfirst.org/docs/licenses/
"Håøya, Norway",59.0218258,9.823511103232747,"Håøya naturreservat, Porsgrunn, Norway",Håøya naturreservat,,,,,Telemark,Porsgrunn,,Norway,,no,,1,© OpenStreetMap contributors,Open Database License,https://www.openstreetmap.org/copyright
"Haraldsvei, Norway",,,,,,,,,,,,,,,,,,,
"Harstad, Norway",68.799943,16.5440322,"Harstad, Norway",,,,,,Troms,Harstad,,Norway,1,no,,1,© OpenStreetMap contributors,Open Database License,https://www.openstreetmap.org/copyright
"Haslemo, Flisa, Norway",60.6131745,12.0108926,"2270 Flisa (Flisa), Norway",Flisa,,,2270,,Innlandet,Flisa,,Norway,1,no,,0.5,© OpenStreetMap contributors,Open Database License,https://www.openstreetmap.org/copyright
"Haug, Norway",68.1372172,13.5272185,"8372 Haug (Haug), Norway",Haug,,,8372,,Nordland,Haug,,Norway,1,no,,1,© OpenStreetMap contributors,Open Database License,https://www.openstreetmap.org/copyright
"Haugesund, Norway",59.46824785,5.082761213563481,"Haugesund, Norway",,,,,,Rogaland,Haugesund,,Norway,1,no,,1,© OpenStreetMap contributors,Open Database License,https://www.openstreetmap.org/copyright
"Havøysund, Norway",70.9963105,24.6609576,"9690 Havøysund - Ávanuorri (Havøysund - Ávanuorri), Norway",Havøysund - Ávanuorri,,,9690,,Finnmark,Havøysund - Ávanuorri,,Norway,1,no,,1,© OpenStreetMap contributors,Open Database License,https://www.openstreetmap.org/copyright
"Hegra, Norway",63.4641248,11.1142474,"Hegra (Hegra), Norway",Hegra,,,,,Trøndelag,Hegra,,Norway,1,no,,1,© OpenStreetMap contributors,Open Database License,https://www.openstreetmap.org/copyright
"Heiavann i Fet, Norway",69.9480206,23.186483,"The Rock Art of Alta, Altaveien, 9512 Alta, Norway",The Rock Art of Alta,,Altaveien,9512,Hjemmeluft øvre,Finnmark,Alta,Troms og Finnmark,Norway,,no,,0,© OpenStreetMap contributors,Open Database License,https://www.openstreetmap.org/copyright
"Helgelandsmoen, Norway",60.110435499999994,10.229418337227909,"Helgelandsmoen, Furuhallveien, 3530 Hole, Norway",Helgelandsmoen,Helgelandsmoen Næringspark AS,Furuhallveien,3530,,Buskerud,Hole,Viken,Norway,,no,,1,© OpenStreetMap contributors,Open Database License,https://www.openstreetmap.org/copyright
"Helgensgt., Bergen, Norway",60.338792,5.416049,"Bergen, Vestland, Norway",,,,,,,Bergen,Vestland,Norway,1,no,,0.5,,,https://www.whosonfirst.org/docs/licenses/
"Hellesvik i Lyssøysund, Norway",60.22150295,10.369843245741478,"Kistefoss I, Kistefossveien, 3520 Jevnaker, Norway",Kistefoss I,Furumoen,Kistefossveien,3520,Kistefoss,Akershus,Jevnaker,Viken,Norway,,no,,0,© OpenStreetMap contributors,Open Database License,https://www.openstreetmap.org/copyright
"Hellevn, Minde, Norway",,,,,,,,,,,,,,,,,,,
"Helsfyr Tbanest., Norway",59.916892250000004,10.808616696172663,"Helsfyr Atrium, Strømsveien, 0665 Oslo, Norway",Helsfyr Atrium,Gullhaug,Strømsveien,0665,Gamle Oslo,,Oslo,,Norway,0.3969,no,,0.35720999999999997,© OpenStreetMap contributors,Open Database License,https://www.openstreetmap.org/copyright
"Hemne, Norway",63.290021,9.088549,"Hemne bibliotek, Vorphaugen, 7200 Kyrksæterøra, Norway",Hemne bibliotek,Vesse,Vorphaugen,7200,Kjørse,Trøndelag,Kyrksæterøra,Trøndelag,Norway,0.9,no,,0.9,© OpenStreetMap contributors,Open Database License,https://www.openstreetmap.org/copyright
"Hemsedal, Norway",60.928243699999996,8.383486929952534,"3560 Hemsedal, Norway",,,,3560,,Buskerud,Hemsedal,,Norway,1,no,,1,© OpenStreetMap contributors,Open Database License,https://www.openstreetmap.org/copyright
"Henningsvatnet, Norway",64.08725,11.85422,"Henningsvatnet, Steinkjer, Trøndelag, Norway",Henningsvatnet,,,,,,Steinkjer,Trøndelag,Norway,1,no,,1,,CC BY 4.0,https://www.geonames.org/datasources/
"Henningvann, Norway",,,,,,,,,,,,,,,,,,,
"Henningvatnet, Norway",63.92570125,11.703714143440926,"Henningvatnet, Steinkjer, Trøndelag, Norway",Henningvatnet,,,,,Trøndelag,Steinkjer,,Norway,1,no,,1,© OpenStreetMap contributors,Open Database License,https://www.openstreetmap.org/copyright
"Henningvola, Norway",63.9322849,11.6846327,"Henningvola hytteområde, Steinkjer, Norway",Henningvola hytteområde,Henningvola hytteområde,,,,Trøndelag,Steinkjer,,Norway,0.9,no,,0.9,© OpenStreetMap contributors,Open Database License,https://www.openstreetmap.org/copyright
"Herøysundet, Norway",59.9234537,5.798846,"5462 Herøysund (Herøysund), Norway",Herøysund,,,5462,,Vestland,Herøysund,,Norway,0.7363636363636364,no,,0.7363636363636364,© OpenStreetMap contributors,Open Database License,https://www.openstreetmap.org/copyright
"Hesjevoll, Jostedalen, Norway",61.61173,7.28289,"Hesjevoll, Luster, Vestland, Norway",Hesjevoll,,,,,,Luster,Vestland,Norway,,no,,0,,CC BY 4.0,https://www.geonames.org/datasources/
"Hessdalen, 7480 Ålen, Norway",62.84185,11.3013,"Holtalen (Ålen), Trøndelag, Norway",,Holtalen,,,,,Ålen,Trøndelag,Norway,1,no,,0.25,,,https://www.whosonfirst.org/docs/licenses/
"Hessdalen, Norway",62.7932904,11.1884916,"Hessdalen, Holtålen, Norway",Hessdalen,,,,Hessdalen,Trøndelag,Holtålen,,Norway,1,no,,1,© OpenStreetMap contributors,Open Database License,https://www.openstreetmap.org/copyright
"Hetlebakken, Åsane, Norway",60.471942,5.390854,"Hetlebakken snuplass, Hetlebakkvegen, 5111 Bergen, Norway",Hetlebakken snuplass,Åsane,Hetlebakkvegen,5111,Hetlebakka,Vestland,Bergen,,Norway,1,no,1,1,© OpenStreetMap contributors,Open Database License,https://www.openstreetmap.org/copyright
"Hetlebakken, Nyborg, Norway",60.473308,5.332746,"Nyborg, Bergen, Vestland, Norway",Nyborg,,,,Nyborg,,Bergen,Vestland,Norway,1,no,,0.5,,,https://www.whosonfirst.org/docs/licenses/
"Hetleviksåsen, Norway",,,,,,,,,,,,,,,,,,,
"Hildestad, Norway",61.3211569,7.2226944,"6879 Hildestad (Hafslo), Norway",Hildestad,,,6879,,Vestland,Hafslo,,Norway,1,no,,1,© OpenStreetMap contributors,Open Database License,https://www.openstreetmap.org/copyright
"Hinningvatn, Norway",,,,,,,,,,,,,,,,,,,
"Hisøy, Arendal, Norway",58.4356296,8.757036146692265,"Hisøy, Kolbjørnsvik, Agder, Norway",Hisøy,,,,,Agder,Kolbjørnsvik,,Norway,1,no,,1,© OpenStreetMap contributors,Open Database License,https://www.openstreetmap.org/copyright
"Hisøy, Norway",58.4356296,8.757036146692265,"Hisøy, Kolbjørnsvik, Agder, Norway",Hisøy,,,,,Agder,Kolbjørnsvik,,Norway,,no,,1,© OpenStreetMap contributors,Open Database License,https://www.openstreetmap.org/copyright
"Hitland, Norway",60.4882412,5.2857327,"Hitland, Bergen, Norway",Hitland,Åsane,,5137,Hitland,Vestland,Bergen,,Norway,,no,,1,© OpenStreetMap contributors,Open Database License,https://www.openstreetmap.org/copyright
"Hjelestadskiftet, Norway",,,,,,,,,,,,,,,,,,,
"Hoemsetra, Eikesdal, Norway",,,,,,,,,,,,,,,,,,,
"Hof, Norway",59.530321,10.0883162,"3090 Hof (Hof), Norway",Hof,,,3090,,Vestfold,Hof,,Norway,1,no,,1,© OpenStreetMap contributors,Open Database License,https://www.openstreetmap.org/copyright
"Høgstad, Jæren, Norway",59.3213381,9.657241542089926,"Hogstad, Opdalsveien, Opdalen, Norway",Hogstad,,Opdalsveien,,,Telemark,Opdalen,Vestfold og Telemark,Norway,,no,,0,© OpenStreetMap contributors,Open Database License,https://www.openstreetmap.org/copyright
"Holandsvik, Norway",,,,,,,,,,,,,,,,,,,
"Holandsvika, Norway",66.722611,13.676358,"Holandsvika, Brattland, Meløy, Nordland, Norway",Holandsvika,,,,Brattland,Nordland,Meløy,,Norway,1,no,,1,© OpenStreetMap contributors,Open Database License,https://www.openstreetmap.org/copyright
"Holdhus, Fusa kommune, Norway",60.16225,5.593431,"Bjørnafjorden (Fusa), Vestland, Norway",,Bjørnafjorden,,,,,Fusa,Vestland,Norway,0.5,no,,0.36,,,https://www.whosonfirst.org/docs/licenses/
"Holmestrand, Norway",59.5591252,10.153170199116143,"Holmestrand, Norway",,,,,,Vestfold,Holmestrand,,Norway,1,no,,1,© OpenStreetMap contributors,Open Database License,https://www.openstreetmap.org/copyright
"Holmlia, Norway",59.8370389,10.7899889,"Holmlia, Oslo, Norway",Holmlia,,,1254,Holmlia,,Oslo,,Norway,1,no,,1,© OpenStreetMap contributors,Open Database License,https://www.openstreetmap.org/copyright
"Holmlia, Oslo, Norway",59.8370389,10.7899889,"Holmlia, Oslo, Norway",Holmlia,,,1254,Holmlia,,Oslo,,Norway,1,no,,1,© OpenStreetMap contributors,Open Database License,https://www.openstreetmap.org/copyright
"Holter, Norway",60.1458281,11.0517135,"2034 Holter (Holter), Norway",Holter,,,2034,,Akershus,Holter,,Norway,1,no,,1,© OpenStreetMap contributors,Open Database License,https://www.openstreetmap.org/copyright
"Hønefoss, Norway",60.1662082,10.255486,"3510 Hønefoss, Norway",Hønefoss,,,3510,,Buskerud,Hønefoss,,Norway,1,no,,1,© OpenStreetMap contributors,Open Database License,https://www.openstreetmap.org/copyright
"Hopland, Norway",61.86779,6.3133295,"6796 Hopland (Randabygda), Norway",Hopland,,,6796,,Vestland,Randabygda,,Norway,1,no,,1,© OpenStreetMap contributors,Open Database License,https://www.openstreetmap.org/copyright
"Hormindal, Norway",,,,,,,,,,,,,,,,,,,
"Hornindal, Norway",61.9743535,6.5250604,"6763 Hornindal (Grodås), Norway",Hornindal,,,6763,,Møre og Romsdal,Grodås,,Norway,1,no,,1,© OpenStreetMap contributors,Open Database License,https://www.openstreetmap.org/copyright
"Horten, Norway",59.4101728,10.443739186052063,"Horten, Norway",,,,,,Vestfold,Horten,,Norway,1,no,,1,© OpenStreetMap contributors,Open Database License,https://www.openstreetmap.org/copyright
"Høvik, Norway",59.2415191,11.4806807,"Høvik (Høvik), Norway",Høvik,,,,,Østfold,Høvik,,Norway,1,no,,1,© OpenStreetMap contributors,Open Database License,https://www.openstreetmap.org/copyright
"Hovin, Norway",63.1055604,10.2241132,"7236 Hovin (Hovin), Norway",Hovin,,,7236,,Trøndelag,Hovin,,Norway,1,no,,1,© OpenStreetMap contributors,Open Database License,https://www.openstreetmap.org/copyright
"Høybråten. Oslo, Norway",59.9453932,10.9216602,"Høybråten, Oslo, Norway",Høybråten,,,1087,Høybråten,,Oslo,,Norway,1,no,,1,© OpenStreetMap contributors,Open Database License,https://www.openstreetmap.org/copyright
"Høyjord kirke, Norway",59.366383,10.120818,"Høyjord kirke, Skjelbredveien, Høijord, Norway",Høyjord kirke,Solheim,Skjelbredveien,,Skjelbred,Vestfold,Høijord,,Norway,0.7714285714285714,no,,0.7714285714285714,© OpenStreetMap contributors,Open Database License,https://www.openstreetmap.org/copyright
"Høyjord, Norway",59.555275,10.1206389,"Høyjord, Holmestrand, Norway",Høyjord,,,3090,Høyjord,Vestfold,Holmestrand,,Norway,1,no,,1,© OpenStreetMap contributors,Open Database License,https://www.openstreetmap.org/copyright
"Hullvannet (Kragerø), Norway",58.871151499999996,9.414412261250003,"Kragerø kirke, Jøransberg, 3770 Kragerø, Norway",Kragerø kirke,Kragero,Jøransberg,3770,Biørnebyen,Telemark,Kragerø,Vestfold og Telemark,Norway,1,no,,1,© OpenStreetMap contributors,Open Database License,https://www.openstreetmap.org/copyright
"Hunder - Losna, Norway",61.3840605,10.2248278,"Losna (Losna), Norway",Losna,,,,,Innlandet,Losna,,Norway,1,no,,1,© OpenStreetMap contributors,Open Database License,https://www.openstreetmap.org/copyright
"Hurum, Norway",63.4400166,10.4791527,"Hurum, Trondheim, Norway",Hurum,Østbyen,,7060,Hurum,Trøndelag,Trondheim,,Norway,1,no,,1,© OpenStreetMap contributors,Open Database License,https://www.openstreetmap.org/copyright
"Husø, Norway",59.626383,7.8525882,"Huso, Vinje, Norway",Huso,,,,Huso,Telemark,Vinje,,Norway,1,no,,1,© OpenStreetMap contributors,Open Database License,https://www.openstreetmap.org/copyright
"Husøy, Norway",59.2389718,10.4635867,"3132 Husøy (Husøy), Norway",Husøy,,,3132,,Vestfold,Husøy,,Norway,1,no,,1,© OpenStreetMap contributors,Open Database License,https://www.openstreetmap.org/copyright
"Hvalsmoen, Norway",60.19173,10.291418578683196,"Hvalsmoen, Ringerike, Buskerud, Norway",Hvalsmoen,,,,,Buskerud,Ringerike,,Norway,1,no,,1,© OpenStreetMap contributors,Open Database License,https://www.openstreetmap.org/copyright
"Hvam, Skedsmo, Norway",59.7830858,11.4626292,"1960 Skedsmo (Løken), Norway",Skedsmo,,,1960,,Akershus,Løken,,Norway,1,no,,1,© OpenStreetMap contributors,Open Database License,https://www.openstreetmap.org/copyright
"Hyttbakken, Norway",63.2017781,11.1345577,"Hyttbakken, Selbu, Norway",Hyttbakken,,,,Hyttbakken,Trøndelag,Selbu,,Norway,1,no,,1,© OpenStreetMap contributors,Open Database License,https://www.openstreetmap.org/copyright
"Ile, Norway",59.5171998,5.7996229,"Ile (Ile), Norway",Ile,,,,,Rogaland,Ile,,Norway,,no,,1,© OpenStreetMap contributors,Open Database License,https://www.openstreetmap.org/copyright
"Ilseng, Norway",60.7751068,11.2220867,"2344 Ilseng (Ilseng), Norway",Ilseng,,,2344,,Innlandet,Ilseng,,Norway,1,no,,1,© OpenStreetMap contributors,Open Database License,https://www.openstreetmap.org/copyright
"Innbygda, Trysil, Norway",61.315145,12.2638609,"Trysil (Trysil), Norway",Trysil,,,,,Innlandet,Trysil,,Norway,1,no,,0.5,© OpenStreetMap contributors,Open Database License,https://www.openstreetmap.org/copyright
"Ivedalsvann, Norway",,,,,,,,,,,,,,,,,,,
"Jægervannet, Norway",,,,,,,,,,,,,,,,,,,
"Jakobsli, Norway",63.4158236,10.493695,"Jakobsli, Trondheim, Norway",Jakobsli,Østbyen,,7059,Jakobsli,Trøndelag,Trondheim,,Norway,1,no,,1,© OpenStreetMap contributors,Open Database License,https://www.openstreetmap.org/copyright
"Jar, Norway",59.9241194,10.6180722,"Jar, Bærum, Norway",Jar,,,1358,Jar,Akershus,Bærum,,Norway,1,no,,1,© OpenStreetMap contributors,Open Database License,https://www.openstreetmap.org/copyright
"Jaren, Norway",60.3925694,10.5617639,"2770 Jaren (Jaren), Norway",Jaren,,,2770,,Innlandet,Jaren,,Norway,1,no,,1,© OpenStreetMap contributors,Open Database License,https://www.openstreetmap.org/copyright
"Jarer, Norway",,,,,,,,,,,,,,,,,,,
"Jegerveien, Norway",58.8949953,5.7196136,"Jegerveien, 4035 Stavanger, Norway",Jegerveien,Hinna,Jegerveien,4035,Godeset,Rogaland,Stavanger,,Norway,,no,,1,© OpenStreetMap contributors,Open Database License,https://www.openstreetmap.org/copyright
"Jeløy, Norway",59.4641086,10.644452991295339,"Jeløy, Moss, Østfold, Norway",Jeløy,,,,,Østfold,Moss,,Norway,,no,,1,© OpenStreetMap contributors,Open Database License,https://www.openstreetmap.org/copyright
"Jevnaker, Norway",60.28255445,10.408457856495165,"3520 Jevnaker, Norway",,,,3520,,Akershus,Jevnaker,,Norway,1,no,,1,© OpenStreetMap contributors,Open Database License,https://www.openstreetmap.org/copyright
"Jørstadmoen, Norway",61.1455355,10.3848109,"2625 Jørstadmoen (Jørstadmoen), Norway",Jørstadmoen,,,2625,,Innlandet,Jørstadmoen,,Norway,1,no,,1,© OpenStreetMap contributors,Open Database License,https://www.openstreetmap.org/copyright
"Kågsund, Skjervøy, Norway",,,,,,,,,,,,,,,,,,,
"Kalandseid, Bergen, Norway",60.338792,5.416049,"Bergen, Vestland, Norway",,,,,,,Bergen,Vestland,Norway,1,no,,0.5,,,https://www.whosonfirst.org/docs/licenses/
"Kalandseidet, Bergen, Norway",60.3943055,5.3259192,"Bergen, Norway",,,,,,Vestland,Bergen,,Norway,1,no,,1,© OpenStreetMap contributors,Open Database License,https://www.openstreetmap.org/copyright
"Kjeller flyplass, Norway",59.96985165,11.035775502818932,"Kjeller Airport, Fetveien, 2007 Kjeller, Norway",Kjeller Airport,,Fetveien,2007,Volla,Akershus,Kjeller,,Norway,,no,,0,© OpenStreetMap contributors,Open Database License,https://www.openstreetmap.org/copyright
"Kjellmyra, Gjeåsen, Norway",60.65,12.03333,"Asnes (Kjellmyra), Innlandet, Norway",,Asnes,,,,,Kjellmyra,Innlandet,Norway,,no,,0,,,https://www.whosonfirst.org/docs/licenses/
"Kjellmyra, Norway",60.6464832,12.038723,"2280 Kjellmyra (Kjellmyra), Norway",Kjellmyra,,,2280,,Innlandet,Kjellmyra,,Norway,1,no,,1,© OpenStreetMap contributors,Open Database License,https://www.openstreetmap.org/copyright
"Kjerringvik, Norway",59.0412286,10.2260649,"Kjerringvik (Kjerringvik), Norway",Kjerringvik,,,,,Vestfold,Kjerringvik,,Norway,1,no,,1,© OpenStreetMap contributors,Open Database License,https://www.openstreetmap.org/copyright
"Kjøpsvik, Norway",68.0973005,16.3786373,"8590 Gásluokta - Kjøpsvik (Gásluokta - Kjøpsvik), Norway",Gásluokta - Kjøpsvik,,,8590,,Nordland,Gásluokta - Kjøpsvik,,Norway,1,no,,1,© OpenStreetMap contributors,Open Database License,https://www.openstreetmap.org/copyright
"Kløfta, Norway",60.0740687,11.1380487,"2040 Kløfta (Kløfta), Norway",Kløfta,,,2040,,Akershus,Kløfta,,Norway,1,no,,1,© OpenStreetMap contributors,Open Database License,https://www.openstreetmap.org/copyright
"Klokkarstua, Hurum, Norway",63.4400166,10.4791527,"Hurum, Trondheim, Norway",Hurum,Østbyen,,7060,Hurum,Trøndelag,Trondheim,,Norway,1,no,,1,© OpenStreetMap contributors,Open Database License,https://www.openstreetmap.org/copyright
"Købehavngata, Oslo 5, Norway",,,,,,,,,,,,,,,,,,,
"Kolbotn, Norway",59.8106447,10.7999058,"1410 Kolbotn (Kolbotn), Norway",Kolbotn,,,1410,,Akershus,Kolbotn,,Norway,1,no,,1,© OpenStreetMap contributors,Open Database License,https://www.openstreetmap.org/copyright
"kollåsen, Ulset i Åsane, Norway",,,,,,,,,,,,,,,,,,,
"Kolstad, Norway",63.8233008,11.8946594,"Kolstad (Kolstad), Norway",Kolstad,,,,,Trøndelag,Kolstad,,Norway,1,no,,1,© OpenStreetMap contributors,Open Database License,https://www.openstreetmap.org/copyright
"Komsafjellet, 9501 Alta, Norway",69.97585,23.276,"Komsafjellet, 9501 Alta, Norway",Komsafjellet,,,9501,,,Alta,Troms og Finnmark,Norway,1,no,1,1,,CC BY 4.0,https://www.geonames.org/datasources/
"Kongensgt, Trondheim, Norway",63.41247,10.41322,"Trondheim (Trondheim), Trøndelag, Norway",,Trondheim,,,,,Trondheim,Trøndelag,Norway,1,no,,0.5,,,https://www.whosonfirst.org/docs/licenses/
"Kongsvinger, Norway",60.1899109,12.216023065279844,"Kongsvinger, Norway",,,,,,Innlandet,Kongsvinger,,Norway,1,no,,1,© OpenStreetMap contributors,Open Database License,https://www.openstreetmap.org/copyright
"Konnerud, Norway",59.717884,10.1489244,"3032 Konnerud (Konnerud), Norway",Konnerud,,,3032,,Buskerud,Konnerud,,Norway,1,no,,1,© OpenStreetMap contributors,Open Database License,https://www.openstreetmap.org/copyright
"Korneset, Fanafjorden, Norway",62.17283,11.85045,"Korneset, Engerdal, Innlandet, Norway",Korneset,,,,,,Engerdal,Innlandet,Norway,,no,,0,,CC BY 4.0,https://www.geonames.org/datasources/
"Korsnes, Storjord, Norway",62.2683574,7.3618051,"Korsnes, Fjord, Norway",Korsnes,,,,Korsnes,Møre og Romsdal,Fjord,,Norway,0.25004699999999996,no,,0.25004699999999996,© OpenStreetMap contributors,Open Database License,https://www.openstreetmap.org/copyright
"Kr. sand., Norway",59.4840165,6.2508666,"Sand (Sand), Norway",Sand,,,,,Rogaland,Sand,,Norway,1,no,,1,© OpenStreetMap contributors,Open Database License,https://www.openstreetmap.org/copyright
"Kragerø, Norway",58.8696217,9.4142145,"Kragerø, Norway",,,,,,Telemark,Kragerø,,Norway,1,no,,1,© OpenStreetMap contributors,Open Database License,https://www.openstreetmap.org/copyright
"Kråkstad, Norway",63.1919421,11.1264126,"Kråkstad (Kråkstad), Norway",Kråkstad,,,,,Trøndelag,Kråkstad,,Norway,1,no,,1,© OpenStreetMap contributors,Open Database License,https://www.openstreetmap.org/copyright
"Kristianlyst skole, Norway",58.937698,5.734768,"Kristianslyst skole, Skolevollen, 4018 Stavanger, Norway",Kristianslyst skole,Stavanger,Skolevollen,4018,Hillevåg,Rogaland,Stavanger,Rogaland,Norway,0.9,no,,0.9,© OpenStreetMap contributors,Open Database License,https://www.openstreetmap.org/copyright
"Kristianlyst ungdomsskole, Norway",59.821337,10.633182,"Alværn ungdomsskole, 1453 Nesodden, Norway",,,Alværn ungdomsskole,1453,Alværn,Akershus,Nesodden,Viken,Norway,,no,,0.5516129032258065,© OpenStreetMap contributors,Open Database License,https://www.openstreetmap.org/copyright
"Kristiansand, Norway",58.085627599999995,7.93185802875815,"Kristiansand, Norway",,,,,,Agder,Kristiansand,,Norway,1,no,,1,© OpenStreetMap contributors,Open Database License,https://www.openstreetmap.org/copyright
"Kristiansund, Norway",63.216819400000006,7.545258996501891,"Kristiansund, Norway",,,,,,Møre og Romsdal,Kristiansund,,Norway,1,no,,1,© OpenStreetMap contributors,Open Database License,https://www.openstreetmap.org/copyright
"Krokeide, Norway",60.2271889,5.2971472,"5244 Krokeide (Bergen), Norway",Krokeide,,,5244,,Vestland,Bergen,,Norway,1,no,,1,© OpenStreetMap contributors,Open Database License,https://www.openstreetmap.org/copyright
"Kronåsen, Norway",,,,,,,,,,,,,,,,,,,
"Kvaløya, Norway",67.6749889,14.6837584,"Kvaløya, Steigen, Nordland, Norway",Kvaløya,,,,,Nordland,Steigen,,Norway,1,no,,1,© OpenStreetMap contributors,Open Database License,https://www.openstreetmap.org/copyright
"Kvesjøen i Lierne, Norway",64.49395369999999,13.859257620855981,"Kvesjøen, Lierne, Trøndelag, Norway",Kvesjøen,,,,,Trøndelag,Lierne,,Norway,1,no,,0.9,© OpenStreetMap contributors,Open Database License,https://www.openstreetmap.org/copyright
"Kvinesdal, Norway",58.51813075,6.9539610197038755,"Kvinesdal, Norway",,,,,,Agder,Kvinesdal,,Norway,1,no,,1,© OpenStreetMap contributors,Open Database License,https://www.openstreetmap.org/copyright
"Kvinnherad, Norway",59.95317235,6.032514050433982,"Kvinnherad, Norway",,,,,,Vestland,Kvinnherad,,Norway,1,no,,1,© OpenStreetMap contributors,Open Database License,https://www.openstreetmap.org/copyright
"Lade postkontor, Norway",69.2299015,17.98164661538462,"Finnsnes Postkontor, Smørhusbakken, 9300 Finnsnes, Norway",Finnsnes Postkontor,Lia,Smørhusbakken,9300,Luneborg,Troms,Finnsnes,Troms og Finnmark,Norway,,no,,0.7285714285714286,© OpenStreetMap contributors,Open Database License,https://www.openstreetmap.org/copyright
"Lærdalsøyri, Norway",61.0987561,7.4825328,"6887 Lærdalsøyri (Lærdalsøyri), Norway",Lærdalsøyri,,,6887,,Vestland,Lærdalsøyri,,Norway,1,no,,1,© OpenStreetMap contributors,Open Database License,https://www.openstreetmap.org/copyright
"Laksevåg, Norway",60.3876083,5.2925722,"Laksevåg, Bergen, Norway",Laksevåg,Laksevåg,,5160,Laksevåg,Vestland,Bergen,,Norway,1,no,,1,© OpenStreetMap contributors,Open Database License,https://www.openstreetmap.org/copyright
"Lambertsetervn., Norway",,,,,,,,,,,,,,,,,,,
"Landås, Norway",58.4919008,7.8404775,"Landås (Landås), Norway",Landås,,,,,Agder,Landås,,Norway,1,no,,1,© OpenStreetMap contributors,Open Database License,https://www.openstreetmap.org/copyright
"Landåstorget, Norway",60.36306735,5.368570269958768,"Landåstorget, Landås, Bergen, Vestland, Norway",Landåstorget,Årstad,,,Landås,Vestland,Bergen,,Norway,,no,,0,© OpenStreetMap contributors,Open Database License,https://www.openstreetmap.org/copyright
"Landfalløya, Norway",59.7490961,10.1688641,"Landfalløya, Bragernes, Drammen, Norway",Landfalløya,Bragernes,,3022,,Buskerud,Drammen,,Norway,1,no,,1,© OpenStreetMap contributors,Open Database License,https://www.openstreetmap.org/copyright
"Larkollen, Norway",59.330383,10.6702747,"1560 Larkollen (Larkollen), Norway",Larkollen,,,1560,,Østfold,Larkollen,,Norway,1,no,,1,© OpenStreetMap contributors,Open Database License,https://www.openstreetmap.org/copyright
"Larvik, Norway",59.0967308,10.021929959972812,"Larvik, Norway",,,,,,Vestfold,Larvik,,Norway,1,no,,1,© OpenStreetMap contributors,Open Database License,https://www.openstreetmap.org/copyright
"Lavangen, Norway",68.71698319999999,17.816274754930678,"9357 Lavangen, Norway",,,,9357,,Troms,Lavangen,,Norway,1,no,,1,© OpenStreetMap contributors,Open Database License,https://www.openstreetmap.org/copyright
"Leikvikfjell, Norway",,,,,,,,,,,,,,,,,,,
"Leira i Valdres, Norway",60.9712844,9.2915438,"2920 Leira (Leira), Norway",Leira,,,2920,,Innlandet,Leira,,Norway,0.33333333333333337,no,,0.33333333333333337,© OpenStreetMap contributors,Open Database License,https://www.openstreetmap.org/copyright
"Leira Sentrum, Norway",60.971523,9.293082,"Leira sentrum, Kongsvegen, 2920 Leira, Norway",Leira sentrum,,Kongsvegen,2920,Sylvsmedhaugen,Innlandet,Leira,,Norway,,no,,0,© OpenStreetMap contributors,Open Database License,https://www.openstreetmap.org/copyright
"Leirsund, Norway",59.9968544,11.0874371,"2015 Leirsund (Leirsund), Norway",Leirsund,,,2015,,Akershus,Leirsund,,Norway,1,no,,1,© OpenStreetMap contributors,Open Database License,https://www.openstreetmap.org/copyright
"Leksvik, Norway",63.6727318,10.6232322,"7120 Leksvik (Leksvik), Norway",Leksvik,,,7120,,Trøndelag,Leksvik,,Norway,1,no,,1,© OpenStreetMap contributors,Open Database License,https://www.openstreetmap.org/copyright
"Lena v/Gjøvik, Norway",60.676485,10.81747,"Lena-Valle videregående skole, Lena, 2850 Lena, Norway",,Ostre Toten,"Lena-Valle videregående skole, Lena",2850,,,Lena,Innlandet,Norway,,no,,0,© OpenStreetMap contributors,Open Database License,https://www.openstreetmap.org/copyright
"Lensvik, Norway",63.5130903,9.8088303,"7316 Lensvik (Lensvik), Norway",Lensvik,,,7316,,Trøndelag,Lensvik,,Norway,1,no,,1,© OpenStreetMap contributors,Open Database License,https://www.openstreetmap.org/copyright
"Levanger, Norway",63.696451800000006,11.223880440465752,"Levanger, Norway",,,,,,Trøndelag,Levanger,,Norway,1,no,,1,© OpenStreetMap contributors,Open Database License,https://www.openstreetmap.org/copyright
"Liagrenda, Ringebu, Norway",61.4385917,10.1362556,"Liagrenda (Liagrenda), Norway",Liagrenda,,,,,Innlandet,Liagrenda,,Norway,1,no,,0.5,© OpenStreetMap contributors,Open Database License,https://www.openstreetmap.org/copyright
"Lidarheim, Åsbygda, Norway",68.11827,13.65493,"Lidarheim, Vestvagoy, Nordland, Norway",Lidarheim,,,,,,Vestvagoy,Nordland,Norway,,no,,0,,CC BY 4.0,https://www.geonames.org/datasources/
"Lier, Norway",59.84531345,10.211552530640098,"Lier, Norway",,,,,,Buskerud,Lier,,Norway,1,no,,1,© OpenStreetMap contributors,Open Database License,https://www.openstreetmap.org/copyright
"Lille Breivik, Askøy, Norway",60.434167,5.179677,"Askoy (Askøy), Vestland, Norway",,Askoy,,,,,Askøy,Vestland,Norway,1,no,,0.5,,,https://www.whosonfirst.org/docs/licenses/
"Lilleakervn., Norway",,,,,,,,,,,,,,,,,,,
"Lillebergsvingen, Norway",59.9196704,10.7982263,"Lillebergsvingen, 0662 Oslo, Norway",Lillebergsvingen,,Lillebergsvingen,0662,Valle,,Oslo,,Norway,,no,,0,© OpenStreetMap contributors,Open Database License,https://www.openstreetmap.org/copyright
"Lillehammer, Norway",61.1333408,10.426585544131413,"Lillehammer, Norway",,,,,,Innlandet,Lillehammer,,Norway,1,no,,1,© OpenStreetMap contributors,Open Database License,https://www.openstreetmap.org/copyright
"Lillestrøm, Norway",59.9559239,11.0491122,"2003 Lillestrøm, Norway",Lillestrøm,,,2003,,Akershus,Lillestrøm,,Norway,1,no,,1,© OpenStreetMap contributors,Open Database License,https://www.openstreetmap.org/copyright
"Lindalsberget, Norway",59.9424778,12.2620889,"Lindalsberget, Lindalen, Eidskog, Innlandet, Norway",Lindalsberget,,,,Lindalen,Innlandet,Eidskog,Innlandet,Norway,,no,,0,© OpenStreetMap contributors,Open Database License,https://www.openstreetmap.org/copyright
"Lindås, Norway",60.7363494,5.1614412,"5955 Lindås (Lindås), Norway",Lindås,,,5955,,Vestland,Lindås,,Norway,1,no,,1,© OpenStreetMap contributors,Open Database License,https://www.openstreetmap.org/copyright
"Linnestad i Ramnes, Norway",59.34225,10.30609,"Linnestad, Tønsberg, Vestfold og Telemark, Norway",Linnestad,,,,,,Tønsberg,Vestfold og Telemark,Norway,,no,,0,,CC BY 4.0,https://www.geonames.org/datasources/
"Lista flystasjon, Norway",58.1092899,6.5669124,"Lista fyr, Fyrveien, 4563 Vestbygd, Norway",Lista fyr,Vågsvoll,Fyrveien,4563,,Agder,Vestbygd,Agder,Norway,,no,,0,© OpenStreetMap contributors,Open Database License,https://www.openstreetmap.org/copyright
"Ljørdalen, Norway",61.3838076,12.684371,"2425 Ljørdalen (Ljørdalen), Norway",Ljørdalen,,,2425,,Innlandet,Ljørdalen,,Norway,1,no,,1,© OpenStreetMap contributors,Open Database License,https://www.openstreetmap.org/copyright
"Løberg, Skien, Norway",59.202805,9.65755,"Løbergvegen, 3719 Skien, Norway",Løberg,,Løbergvegen,3719,Fedraheim,Telemark,Skien,,Norway,1,no,1,1,© OpenStreetMap contributors,Open Database License,https://www.openstreetmap.org/copyright
"Loddefjord, Norway",60.361483,5.2331114,"Loddefjord, Bergen, Norway",Loddefjord,Laksevåg,,5171,Loddefjord,Vestland,Bergen,,Norway,1,no,,1,© OpenStreetMap contributors,Open Database License,https://www.openstreetmap.org/copyright
"Loen, Norway",61.8720877,6.8466459,"6789 Loen (Loen), Norway",Loen,,,6789,,Vestland,Loen,,Norway,1,no,,1,© OpenStreetMap contributors,Open Database License,https://www.openstreetmap.org/copyright
"Lofoten, Norway",68.20239194999999,13.680940656585705,"Lofoten, Norway",Lofoten,,,,,,,,Norway,1,no,,1,© OpenStreetMap contributors,Open Database License,https://www.openstreetmap.org/copyright
"Loftseik, Norway",59.3058155,10.4285244,"Loftseik, Tønsberg, Norway",Loftseik,,,3123,Loftseik,Vestfold,Tønsberg,,Norway,1,no,,1,© OpenStreetMap contributors,Open Database License,https://www.openstreetmap.org/copyright
"Løken, Holter, Norway",60.1382796,11.0548177,"Løken, Holter meieri, Norway",Løken,,,2034,Løken,Akershus,Holter meieri,,Norway,0.9,no,,0.45,© OpenStreetMap contributors,Open Database License,https://www.openstreetmap.org/copyright
"Løkeng, Norway",70.0996806,21.6014805,"Løkeng, Kvænangen, Norway",Løkeng,,,,Løkeng,Troms,Kvænangen,,Norway,1,no,,1,© OpenStreetMap contributors,Open Database License,https://www.openstreetmap.org/copyright
"Løkken verk, Norway",63.1257479,9.7053282,"7332 Løkken Verk (Løkken Verk), Norway",Løkken Verk,,,7332,,Trøndelag,Løkken Verk,,Norway,1,no,,1,© OpenStreetMap contributors,Open Database License,https://www.openstreetmap.org/copyright
"Løkken Verk, Norway",63.1257479,9.7053282,"7332 Løkken Verk (Løkken Verk), Norway",Løkken Verk,,,7332,,Trøndelag,Løkken Verk,,Norway,1,no,,1,© OpenStreetMap contributors,Open Database License,https://www.openstreetmap.org/copyright
"Lomdalen, Espeland, Norway",58.35,7.03333,"Kvinesdal (Espeland), Agder, Norway",,Kvinesdal,,,,,Espeland,Agder,Norway,1,no,,0.5,,,https://www.whosonfirst.org/docs/licenses/
"Lønninghavn, Norway",,,,,,,,,,,,,,,,,,,
"Lørenskog kirke, Norway",59.924556499999994,10.98478623799435,"Lørenskog kirke, Hammerveien, 1474 Lørenskog, Norway",Lørenskog kirke,Bredde,Hammerveien,1474,Mellom-Hammer,Akershus,Lørenskog,,Norway,1,no,,1,© OpenStreetMap contributors,Open Database License,https://www.openstreetmap.org/copyright
"Lørenskog postkontor, Norway",59.924556499999994,10.98478623799435,"Lørenskog kirke, Hammerveien, 1474 Lørenskog, Norway",Lørenskog kirke,Bredde,Hammerveien,1474,Mellom-Hammer,Akershus,Lørenskog,Viken,Norway,1,no,0.3969,0.3969,© OpenStreetMap contributors,Open Database License,https://www.openstreetmap.org/copyright
"Lørenskog, Norway",59.8970034,10.966914823844895,"Lørenskog, Norway",,,,,,Akershus,Lørenskog,,Norway,1,no,,1,© OpenStreetMap contributors,Open Database License,https://www.openstreetmap.org/copyright
"Løten, Norway",60.865275350000005,11.372851280304207,"Løten, Norway",,,,,,Innlandet,Løten,,Norway,1,no,,1,© OpenStreetMap contributors,Open Database License,https://www.openstreetmap.org/copyright
"Løvenstad, Norway",59.936959,11.026377,"Løvenstad, Rælingen, Norway",Løvenstad,,,2006,Løvenstad,Akershus,Rælingen,,Norway,1,no,,1,© OpenStreetMap contributors,Open Database License,https://www.openstreetmap.org/copyright
"Ludvig Karstens vei, Oslo, Norway",59.9339071,10.9226815,"Ludvig Karstens vei, 1064 Oslo, Norway",Ludvig Karstens vei,,Ludvig Karstens vei,1064,Ellingsrud,,Oslo,,Norway,1,no,1,1,© OpenStreetMap contributors,Open Database License,https://www.openstreetmap.org/copyright
"Luktvatn, Norway",66.0475776,13.5271953,"Luktvatn, Vefsn, Norway",Luktvatn,,,8672,Luktvatn,Nordland,Vefsn,,Norway,1,no,,1,© OpenStreetMap contributors,Open Database License,https://www.openstreetmap.org/copyright
"Lunden, Stokke, Norway",59.2111528,10.32185,"Lunden, Stokke, Norway",Lunden,,,3159,Lunden,Vestfold,Stokke,,Norway,1,no,,0.5,© OpenStreetMap contributors,Open Database License,https://www.openstreetmap.org/copyright
"Lunner, Norway",60.235060149999995,10.6664934222367,"Lunner, Norway",,,,,,Akershus,Lunner,,Norway,1,no,,1,© OpenStreetMap contributors,Open Database License,https://www.openstreetmap.org/copyright
"Lutvatn, Norway",,,,,,,,,,,,,,,,,,,
"Lyngbø, Norway",60.373998,5.265756491141159,"Lyngbø, Bergen, Norway",Lyngbø,Laksevåg,,5164,Lyngbø,Vestland,Bergen,,Norway,1,no,,1,© OpenStreetMap contributors,Open Database License,https://www.openstreetmap.org/copyright
"Mågerøy Fort, Norway",60.396674,5.308746,"Frederiksberg fort, Bergen, Norway",,Bergen,Frederiksberg fort,,Skuteviken,Vestland,Bergen,,Norway,,no,,0.55,© OpenStreetMap contributors,Open Database License,https://www.openstreetmap.org/copyright
"Mågerøy fort., Norway",59.20491355,10.901265042068847,"Huth fort, Fastings vei, 1678 Fredrikstad, Norway",Huth fort,Krossnes,Fastings vei,1678,Glombo,Østfold,Fredrikstad,Viken,Norway,,no,,0.5684210526315789,© OpenStreetMap contributors,Open Database License,https://www.openstreetmap.org/copyright
"Malm, Norway",64.0702638,11.2173077,"7790 Malm (Malm), Norway",Malm,,,7790,,Trøndelag,Malm,,Norway,1,no,,1,© OpenStreetMap contributors,Open Database License,https://www.openstreetmap.org/copyright
"Målsjøåsen, Klæbu, Norway",64.08024,11.7357,"Steinkjer (Klaebu), Trøndelag, Norway",,Steinkjer,,,,,Klaebu,Trøndelag,Norway,1,no,,0.5,,,https://www.whosonfirst.org/docs/licenses/
"Mandal, Norway",58.0268181,7.4534802,"4514 Mandal, Norway",Mandal,,,4514,,Agder,Mandal,,Norway,1,no,,1,© OpenStreetMap contributors,Open Database License,https://www.openstreetmap.org/copyright
"Måndalen, Norway",62.5331365,7.445068,"6386 Måndalen (Måndalen), Norway",Måndalen,,,6386,,Møre og Romsdal,Måndalen,,Norway,1,no,,1,© OpenStreetMap contributors,Open Database License,https://www.openstreetmap.org/copyright
"Manglerud, Oslo, Norway",59.8963027,10.8120695,"Manglerud, Oslo, Norway",Manglerud,,,0679,Manglerud,,Oslo,,Norway,1,no,,1,© OpenStreetMap contributors,Open Database License,https://www.openstreetmap.org/copyright
"Maridalen, Norway",60.5497236,10.7765508,"Maridalen, Norway",Maridalen,,,,,Innlandet,Maridalen,,Norway,1,no,,1,© OpenStreetMap contributors,Open Database License,https://www.openstreetmap.org/copyright
"Maridalsvn., Norway",59.968358,10.7662892,"Brekke/Maridalsvn Ø, Maridalsveien, 0882 Oslo, Norway",Brekke/Maridalsvn Ø,,Maridalsveien,0882,Marka,,Oslo,,Norway,,no,,1,© OpenStreetMap contributors,Open Database License,https://www.openstreetmap.org/copyright
"Marøy, Norway",60.7073418,4.894182,"5937 Marøy (Marøy), Norway",Marøy,,,5937,,Vestland,Marøy,,Norway,,no,,1,© OpenStreetMap contributors,Open Database License,https://www.openstreetmap.org/copyright
"Masfjorden, Norway",60.8442382,5.40299081758412,"Masfjorden, Norway",,,,,,Vestland,Masfjorden,,Norway,1,no,,1,© OpenStreetMap contributors,Open Database License,https://www.openstreetmap.org/copyright
"Mathopen, Norway",60.3406417,5.2149944,"Mathopen, Bergen, Norway",Mathopen,Laksevåg,,,Mathopen,Vestland,Bergen,,Norway,1,no,,1,© OpenStreetMap contributors,Open Database License,https://www.openstreetmap.org/copyright
"Mellom Hurdal og Feiring, Norway",69.5794961,30.122169663648847,"Mellom-Ørretvatn, South Varanki, Finnmark, Norway",Mellom-Ørretvatn,,,,,Finnmark,South Varanki,,Norway,,no,,0,© OpenStreetMap contributors,Open Database License,https://www.openstreetmap.org/copyright
"Mellom Kongsberg/Drammen, Norway",59.669905,9.647194538461537,"Kongsberg Kino, Nymoens torg, 3611 Kongsberg, Norway",Kongsberg Kino,Kongsberg,Nymoens torg,3611,,Buskerud,Kongsberg,Viken,Norway,0.5,no,,0.5,© OpenStreetMap contributors,Open Database License,https://www.openstreetmap.org/copyright
"Mellom Molde og Vestnes, Norway",69.5794961,30.122169663648847,"Mellom-Ørretvatn, South Varanki, Finnmark, Norway",Mellom-Ørretvatn,,,,,Finnmark,South Varanki,,Norway,,no,,0,© OpenStreetMap contributors,Open Database License,https://www.openstreetmap.org/copyright
"Mellom Skåbu og Bygdin, Norway",63.109382,7.788624,"Mellom, 6517 Kristiansund Municipality, Norway",,Kristiansund,Mellom,6517,Løkkemyra,Møre og Romsdal,Kristiansund Municipality,Møre and Romsdal,Norway,,no,,0.5,© OpenStreetMap contributors,Open Database License,https://www.openstreetmap.org/copyright
"Melsomvik, Norway",59.2246686,10.3362022,"3159 Melsomvik (Melsomvik), Norway",Melsomvik,,,3159,,Vestfold,Melsomvik,,Norway,1,no,,1,© OpenStreetMap contributors,Open Database License,https://www.openstreetmap.org/copyright
"Merkedammen, Norway",59.39796235,10.06029339439598,"Merkedammen, Valmestadsetra, Vestfold, Norway",Merkedammen,,,,,Vestfold,Valmestadsetra,,Norway,1,no,,1,© OpenStreetMap contributors,Open Database License,https://www.openstreetmap.org/copyright
"Minde, Norway",60.3571005,5.342292255514856,"Minde, Bergen, Norway",Minde,Årstad,,,Minde,Vestland,Bergen,,Norway,1,no,,1,© OpenStreetMap contributors,Open Database License,https://www.openstreetmap.org/copyright
"Mjølkeråen, Norway",60.4884976,5.2609353,"5136 Mjølkeråen (Bergen), Norway",Mjølkeråen,,,5136,,Vestland,Bergen,,Norway,1,no,,1,© OpenStreetMap contributors,Open Database License,https://www.openstreetmap.org/copyright
"Mjøndalen, Norway",59.7500459,10.0122408,"3050 Mjøndalen (Mjøndalen), Norway",Mjøndalen,,,3050,,Buskerud,Mjøndalen,,Norway,1,no,,1,© OpenStreetMap contributors,Open Database License,https://www.openstreetmap.org/copyright
"Mofjellet, Hammeren, Norway",66.30079380000001,14.248367808208043,"Mofjellet kraftverk, Anleggshammeren, 8610 Mofjellstua, Norway",Mofjellet kraftverk,,Anleggshammeren,8610,,Nordland,Mofjellstua,Nordland,Norway,,no,,0,© OpenStreetMap contributors,Open Database License,https://www.openstreetmap.org/copyright
"Molde, Norway",62.60162565,8.138620840166594,"Molde, Norway",,,,,,Møre og Romsdal,Molde,,Norway,1,no,,1,© OpenStreetMap contributors,Open Database License,https://www.openstreetmap.org/copyright
"Morland, Sotra, Norway",61.2096538,7.5313712,"Morland, Årdal, Norway",Morland,,,,Morland,Vestland,Årdal,,Norway,1,no,,1,© OpenStreetMap contributors,Open Database License,https://www.openstreetmap.org/copyright
"Mosheim, Norway",65.8080639,13.2532807,"Mosheim, Vefsn, Norway",Mosheim,,,8658,Mosheim,Nordland,Vefsn,,Norway,1,no,,1,© OpenStreetMap contributors,Open Database License,https://www.openstreetmap.org/copyright
"Mosjøen, Norway",65.8375342,13.1892098,"8656 Mosjøen - Mussere, Norway",Mosjøen - Mussere,,,8656,,Nordland,Mosjøen - Mussere,,Norway,1,no,,1,© OpenStreetMap contributors,Open Database License,https://www.openstreetmap.org/copyright
"Moss, Norway",59.414667449999996,10.659657776223916,"Moss, Norway",,,,,,Østfold,Moss,,Norway,1,no,,1,© OpenStreetMap contributors,Open Database License,https://www.openstreetmap.org/copyright
"Mosseveien, Norway",59.8771132,10.7761741,"Mosseveien, 1177 Oslo, Norway",Mosseveien,,Mosseveien,1177,Bekkelaget,,Oslo,,Norway,,no,,1,© OpenStreetMap contributors,Open Database License,https://www.openstreetmap.org/copyright
"Mossevn. ved Gjersjøen, Norway",,,,,,,,,,,,,,,,,,,
"Munkebotn, Norway",60.414209,5.322654,"Sandviken, Munkebotn, Amalie Skrams vei, 5035 Bergen, Norway","Sandviken, Munkebotn",Bergenhus,Amalie Skrams vei,5035,Skuteviken,Vestland,Bergen,,Norway,0.9,no,,0.9,© OpenStreetMap contributors,Open Database License,https://www.openstreetmap.org/copyright
"Munkvoll stasjon, Norway",63.6733096,10.6278932,"Stasjon, Lundaveien, 7120 Leksvik, Norway",Stasjon,Indre Fosen,Lundaveien,7120,Kroa,Trøndelag,Leksvik,Trøndelag,Norway,1,no,,1,© OpenStreetMap contributors,Open Database License,https://www.openstreetmap.org/copyright
"Namdalen, Norway",69.5566921,29.9776676,"Namdalen (Namdalen), Norway",Namdalen,,,,,Finnmark,Namdalen,,Norway,1,no,,1,© OpenStreetMap contributors,Open Database License,https://www.openstreetmap.org/copyright
"Namsenfjorden, Norway",64.4582529,11.493201577911448,"Namsenfjorden, Trøndelag, Norway",Namsenfjorden,,,,,Trøndelag,,,Norway,1,no,,1,© OpenStreetMap contributors,Open Database License,https://www.openstreetmap.org/copyright
"Nannestad, Norway",60.2267034,10.940940671045684,"Nannestad, Norway",,,,,,Akershus,Nannestad,,Norway,1,no,,1,© OpenStreetMap contributors,Open Database License,https://www.openstreetmap.org/copyright
"Napp i Lofoten, Norway",68.018681,13.189773,"Flakstad (Sund I Lofoten), Nordland, Norway",,Flakstad,,,,,Sund I Lofoten,Nordland,Norway,0.81,no,,0.2025,,,https://www.whosonfirst.org/docs/licenses/
"Napp, Norway",68.1331694,13.4319333,"8382 Napp (Napp), Norway",Napp,,,8382,,Nordland,Napp,,Norway,1,no,,1,© OpenStreetMap contributors,Open Database License,https://www.openstreetmap.org/copyright
"Narvik, Norway",68.28988385,17.086538711321808,"Narvik, Norway",,,,,,Nordland,Narvik,,Norway,1,no,,1,© OpenStreetMap contributors,Open Database License,https://www.openstreetmap.org/copyright
"Nebb ved Skøyen, Norway",,,,,,,,,,,,,,,,,,,
"Nedre Eikerv. Drammen, Norway",59.7452,10.172831,"Drammen (Drammen), Viken, Norway",,Drammen,,,,,Drammen,Viken,Norway,1,no,,0.5,,,https://www.whosonfirst.org/docs/licenses/
"Nemabu Høyfjellstue, Norway",,,,,,,,,,,,,,,,,,,
"Nes, Norway",60.1705037,11.455117948252838,"Nes, Norway",,,,,,Akershus,Nes,,Norway,1,no,,1,© OpenStreetMap contributors,Open Database License,https://www.openstreetmap.org/copyright
"Nesbyen, Norway",60.5468243,9.02834167962304,"3540 Nesbyen, Norway",,,,3540,,Buskerud,Nesbyen,,Norway,1,no,,1,© OpenStreetMap contributors,Open Database License,https://www.openstreetmap.org/copyright
"Nesgrenda, Tvedestrand, Norway",58.6272528,8.8572535,"Nesgrenda, 4934 Tvedestrand, Norway",Nesgrenda,Nesgrenda,,4934,Nes,Agder,Tvedestrand,,Norway,1,no,,1,© OpenStreetMap contributors,Open Database License,https://www.openstreetmap.org/copyright
"Nesna tettsted, Norway",66.198899,13.023359,"Nesna (Nesna), Nordland, Norway",,Nesna,,,,,Nesna,Nordland,Norway,0.5,no,,0.5,,,https://www.whosonfirst.org/docs/licenses/
"Nesodden, Norway",59.808313,10.637834488651412,"Nesodden, Norway",,,,,,Akershus,Nesodden,,Norway,1,no,,1,© OpenStreetMap contributors,Open Database License,https://www.openstreetmap.org/copyright
"Nesset, 7600 Levanger, Norway",63.7508991,11.2642775,"Nesset samfunnshus, Gjemblevegen, 7602 Levanger, Norway",Nesset samfunnshus,Staupslia,Gjemblevegen,7602,Solstad,Trøndelag,Levanger,Trøndelag,Norway,1,no,0.9,0.9,© OpenStreetMap contributors,Open Database License,https://www.openstreetmap.org/copyright
"Nesttun, Norway",60.3162644,5.35439,"Nesttun, Bergen, Norway",Nesttun,Fana,,5221,Nesttun,Vestland,Bergen,,Norway,1,no,,1,© OpenStreetMap contributors,Open Database License,https://www.openstreetmap.org/copyright
"Nestun, Norway",59.9244439,11.9854119,"2233 Nestun, Norway",Nestun,,,2233,,Innlandet,Nestun,,Norway,1,no,,1,© OpenStreetMap contributors,Open Database License,https://www.openstreetmap.org/copyright
"Nevermoen, Norway",66.4071975,14.4663902,"Nevermoen (Nevermoen), Norway",Nevermoen,,,,,Nordland,Nevermoen,,Norway,1,no,,1,© OpenStreetMap contributors,Open Database License,https://www.openstreetmap.org/copyright
"Nidarvoll, Norway",63.399006,10.405469,"Nidarvoll skole, 7031 Trondheim, Norway",,Trondheim,Nidarvoll skole,7031,,,Trondheim,Trøndelag,Norway,,no,,0.9,© OpenStreetMap contributors,Open Database License,https://www.openstreetmap.org/copyright
"Nord-Herøy, Norway",65.9977297,12.311941,"8850 Nordre Herøy (Nordre Herøy), Norway",Nordre Herøy,,,8850,,Nordland,Nordre Herøy,,Norway,,no,,1,© OpenStreetMap contributors,Open Database License,https://www.openstreetmap.org/copyright
"Nord-Statland, Norway",64.4956927,11.147007,"7777 Statland (Statland), Norway",Statland,,,7777,,Trøndelag,Statland,,Norway,0.5,no,,0.5,© OpenStreetMap contributors,Open Database License,https://www.openstreetmap.org/copyright
"Nord Odal, Norway",60.4398571,11.584875777754126,"Nord-Odal, Norway",,,,,,Innlandet,Nord-Odal,,Norway,1,no,,1,© OpenStreetMap contributors,Open Database License,https://www.openstreetmap.org/copyright
"Nordasletta - Sundland, Norway",59.741973,10.176418,"Sundland Verksted, 3018 Drammen, Norway",,Drammen,Sundland Verksted,3018,Strømsgodset,Buskerud,Drammen,Viken,Norway,,no,,0,© OpenStreetMap contributors,Open Database License,https://www.openstreetmap.org/copyright
"Nordengdalen, Norway",64.20012,11.42828,"Nordengdalen, Steinkjer, Trøndelag, Norway",Nordengdalen,,,,,,Steinkjer,Trøndelag,Norway,1,no,,1,,CC BY 4.0,https://www.geonames.org/datasources/
"Norderhov, Norway",60.1316865,10.2727222,"3511 Norderhov (Norderhov), Norway",Norderhov,,,3511,,Buskerud,Norderhov,,Norway,1,no,,1,© OpenStreetMap contributors,Open Database License,https://www.openstreetmap.org/copyright
"Nordfjord, Norway",67.4364849,15.7217783,"Nordfjord (Nordfjord), Norway",Nordfjord,,,,,Nordland,Nordfjord,,Norway,1,no,,1,© OpenStreetMap contributors,Open Database License,https://www.openstreetmap.org/copyright
"Nordfjordeid, Norway",61.907681,5.9891381,"6770 Nordfjordeid, Norway",Nordfjordeid,,,6770,,Vestland,Nordfjordeid,,Norway,1,no,,1,© OpenStreetMap contributors,Open Database License,https://www.openstreetmap.org/copyright
"Nordgrenseter, Norway",,,,,,,,,,,,,,,,,,,
"Nordheim, Norway",63.224281,8.2132333,"Nordheim (Nordheim), Norway",Nordheim,,,,,Møre og Romsdal,Nordheim,,Norway,1,no,,1,© OpenStreetMap contributors,Open Database License,https://www.openstreetmap.org/copyright
"Nordli, Norway",65.3796667,13.6347305,"Nordli (Nordli), Norway",Nordli,,,,,Nordland,Nordli,,Norway,1,no,,1,© OpenStreetMap contributors,Open Database License,https://www.openstreetmap.org/copyright
"Nordre hovin, Norway",59.9298039,11.1392453,"Nordre Hovin, 1900 Fetsund, Norway",Nordre Hovin,Nordre Hovin,,1900,Søndre Hovin,Akershus,Fetsund,,Norway,0.9,no,,0.81,© OpenStreetMap contributors,Open Database License,https://www.openstreetmap.org/copyright
"Nordre Romeriks åsene, Norway",60.24038785,10.142755640061448,"Nordre Semmentjern, Ringerike, Buskerud, Norway",Nordre Semmentjern,,,,,Buskerud,Ringerike,,Norway,0.567,no,0.315,0.315,© OpenStreetMap contributors,Open Database License,https://www.openstreetmap.org/copyright
"Nordreisa, Norway",69.52745715,21.598863610673952,"Nordreisa, Norway",,,,,,Troms,Nordreisa,,Norway,1,no,,1,© OpenStreetMap contributors,Open Database License,https://www.openstreetmap.org/copyright
"Nordsjø, Norway",59.22495,9.45912,"Nordsjø, Skien, Vestfold og Telemark, Norway",Nordsjø,,,,,,Skien,Vestfold og Telemark,Norway,1,no,,1,,CC BY 4.0,https://www.geonames.org/datasources/
"Nøsenvannet, Norway",,,,,,,,,,,,,,,,,,,
"Nøtterøy, Norway",59.2294611,10.4080217,"3140 Nøtterø (Tandstad), Norway",Nøtterø,,,3140,,Vestfold,Tandstad,,Norway,0.7875,no,,0.7875,© OpenStreetMap contributors,Open Database License,https://www.openstreetmap.org/copyright
"Numedal, Norway",69.5691659,20.5911524,"Numedal, Kåfjord, Norway",Numedal,,,,Numedal,Troms,Kåfjord,,Norway,1,no,,1,© OpenStreetMap contributors,Open Database License,https://www.openstreetmap.org/copyright
"Nyborg, Norway",64.0434361,13.9867249,"Nyborg (Nyborg), Norway",Nyborg,,,,,Trøndelag,Nyborg,,Norway,1,no,,1,© OpenStreetMap contributors,Open Database License,https://www.openstreetmap.org/copyright
"Nybygda, Norway",69.2654908,17.7312031,"Nybygda (Nybygda), Norway",Nybygda,,,,,Troms,Nybygda,,Norway,1,no,,1,© OpenStreetMap contributors,Open Database License,https://www.openstreetmap.org/copyright
"Nygård, Laksevåg, Norway",60.3794611,5.2320028,"Nygård, Laksevåg, Bergen, Norway",Nygård,Laksevåg,,5178,,Vestland,Bergen,,Norway,1,no,,1,© OpenStreetMap contributors,Open Database License,https://www.openstreetmap.org/copyright
"Nygård, Norway",68.4639412,17.6883306,"Nygård (Nygård), Norway",Nygård,,,,,Nordland,Nygård,,Norway,1,no,,1,© OpenStreetMap contributors,Open Database License,https://www.openstreetmap.org/copyright
"Ø. Halsen, Norway",68.0598732,15.4118931,"Halsen, 8290 Langbakkan, Norway",Halsen,,Halsen,8290,,Nordland,Langbakkan,,Norway,,no,,0,© OpenStreetMap contributors,Open Database License,https://www.openstreetmap.org/copyright
"Øie, Kvinesdal, Norway",64.751077,12.348395,"Øie naturreservat, Hoylandet, Norway",,,Øie naturreservat,,Sundodden,Trøndelag,Hoylandet,Trøndelag,Norway,,no,,0,© OpenStreetMap contributors,Open Database License,https://www.openstreetmap.org/copyright
"Oklungen, Norway",59.1761366,9.810355,"3948 Oklungen (Porsgrunn), Norway",Oklungen,,,3948,,Telemark,Porsgrunn,,Norway,1,no,,1,© OpenStreetMap contributors,Open Database License,https://www.openstreetmap.org/copyright
"Oldedalen, Norway",61.670968,6.824054,"Stryn (Oldedalen), Vestland, Norway",,Stryn,,,,,Oldedalen,Vestland,Norway,1,no,,1,,,https://www.whosonfirst.org/docs/licenses/
"Olden, Norway",61.8351511,6.8072075,"6788 Olden (Olden), Norway",Olden,,,6788,,Vestland,Olden,,Norway,1,no,,1,© OpenStreetMap contributors,Open Database License,https://www.openstreetmap.org/copyright
"Onsog, Norway",,,,,,,,,,,,,,,,,,,
"Onsøy, Norway",63.4270569,10.1810471,"Onsøy, Heimdal, Trondheim, Norway",Onsøy,Heimdal,,7070,,Trøndelag,Trondheim,,Norway,1,no,,1,© OpenStreetMap contributors,Open Database License,https://www.openstreetmap.org/copyright
"Oppdal sentrum, Norway",62.593324,9.688246,"Oppdal (Oppdal), Trøndelag, Norway",,Oppdal,,,,,Oppdal,Trøndelag,Norway,,no,,0,,,https://www.whosonfirst.org/docs/licenses/
"Oppdal, Norway",62.535178450000004,9.62330412000998,"Oppdal, Norway",,,,,,Trøndelag,Oppdal,,Norway,1,no,,1,© OpenStreetMap contributors,Open Database License,https://www.openstreetmap.org/copyright
"Orkdal, Norway",63.2633284,9.813262492981249,"Orkdal prestegård, Grøtte, Fannrem, Trøndelag, Norway",Orkdal prestegård,,,,Grøtte,Trøndelag,Fannrem,,Norway,0.9,no,,0.9,© OpenStreetMap contributors,Open Database License,https://www.openstreetmap.org/copyright
"Ørsta, Norway",62.247053750000006,6.285936758760558,"Ørsta, Norway",,,,,,Møre og Romsdal,Ørsta,,Norway,1,no,,1,© OpenStreetMap contributors,Open Database License,https://www.openstreetmap.org/copyright
"Os, Norway",62.41518575,11.409662880055379,"Os, Norway",,,,,,Innlandet,Os,,Norway,1,no,,1,© OpenStreetMap contributors,Open Database License,https://www.openstreetmap.org/copyright
"Oslo - Jessheim, Norway",60.141533,11.166917,"Ullensaker (Jessheim), Viken, Norway",,Ullensaker,,,,,Jessheim,Viken,Norway,1,no,,0.5,,,https://www.whosonfirst.org/docs/licenses/
"Oslo 5, Norway",59.9133301,10.7389701,"Oslo, Norway",,,,,,,Oslo,,Norway,1,no,,0.9166666666666666,© OpenStreetMap contributors,Open Database License,https://www.openstreetmap.org/copyright
"Oslo 9, Norway",59.9133301,10.7389701,"Oslo, Norway",,,,,,,Oslo,,Norway,1,no,,0.9166666666666666,© OpenStreetMap contributors,Open Database License,https://www.openstreetmap.org/copyright
"Oslo vestbanestsj., Norway",59.9251,10.799557514963098,"Oslo tennisarena/Oslo turn, Dronning Margretes vei, 0579 Oslo, Norway",Oslo tennisarena/Oslo turn,Søndre Hovin,Dronning Margretes vei,0579,Grünerløkka,,Oslo,,Norway,1,no,,0.567,© OpenStreetMap contributors,Open Database License,https://www.openstreetmap.org/copyright
"Oslo, Norway",59.9133301,10.7389701,"Oslo, Norway",,,,,,,Oslo,,Norway,1,no,,1,© OpenStreetMap contributors,Open Database License,https://www.openstreetmap.org/copyright
"Østmarksetra, Norway",59.888859800000006,10.860621855341325,"Østmarksetra, Østmarkveien, 0688 Oslo, Norway",Østmarksetra,Oslo,Østmarkveien,0688,Marka,,Oslo,Oslo,Norway,,no,,1,© OpenStreetMap contributors,Open Database License,https://www.openstreetmap.org/copyright
"Østre Sumøy, Norway",58.864948,9.43969,"Østre Nessundholme, Kragerø, Norway",,,Østre Nessundholme,,Nessund,Telemark,Kragerø,,Norway,,no,,1,© OpenStreetMap contributors,Open Database License,https://www.openstreetmap.org/copyright
"Oterbekk, Nøtterøy, Norway",59.23333,10.4,"Faerder (Nøtterøy), Vestfold og Telemark, Norway",,Faerder,,,,,Nøtterøy,Vestfold og Telemark,Norway,1,no,,0.5,,,https://www.whosonfirst.org/docs/licenses/
"Otta, Norway",61.7712448,9.5352541,"2670 Otta, Norway",Otta,,,2670,,Innlandet,Otta,,Norway,1,no,,1,© OpenStreetMap contributors,Open Database License,https://www.openstreetmap.org/copyright
"Otterøya, Norway",59.7244347,5.4275055,"Otterøya, Bømlo, Norway",Otterøya,,,5412,Otterøya,Vestland,Bømlo,,Norway,,no,,1,© OpenStreetMap contributors,Open Database License,https://www.openstreetmap.org/copyright
"Ottestad, Norway",60.7472679,11.1364791,"2312 Ottestad (Ottestad), Norway",Ottestad,,,2312,,Innlandet,Ottestad,,Norway,1,no,,1,© OpenStreetMap contributors,Open Database License,https://www.openstreetmap.org/copyright
"Øvre Stadionveg, Norway",66.748987,14.18253,"Øvre Bolivatnet, Meloy, Norway",,,Øvre Bolivatnet,,,,Meloy,Nordland,Norway,,no,,0.4714285714285715,© OpenStreetMap contributors,Open Database License,https://www.openstreetmap.org/copyright
"Øvre Takelvdal, Norway",69.1127186,18.8708489,"Øvre Takelvdal (Øvre Takelvdal), Norway",Øvre Takelvdal,,,,,Troms,Øvre Takelvdal,,Norway,0.9,no,,0.9,© OpenStreetMap contributors,Open Database License,https://www.openstreetmap.org/copyright
"Øyabakken i Sogn, Norway",66.322298,14.157211,"Rana (Mo i Rana), Nordland, Norway",,Rana,,,,,Mo i Rana,Nordland,Norway,0.35720999999999997,no,,0.17860499999999999,,,https://www.whosonfirst.org/docs/licenses/
"Øyanmoen, Norway",63.4657,10.9521,"Øyanmoen, Stjordal, Trøndelag, Norway",Øyanmoen,,,,,,Stjordal,Trøndelag,Norway,,no,,0,,CC BY 4.0,https://www.geonames.org/datasources/
"Øyeren, Norway",59.7761756,11.222211748248812,"Øyeren, Akershus, Norway",Øyeren,,,,,Akershus,,,Norway,1,no,,1,© OpenStreetMap contributors,Open Database License,https://www.openstreetmap.org/copyright
"Phoenix, Arizona, Norway",66.6241808,13.2880495,"Phoenix kafé kiosk, Jektvikveien, 8187 Jektvika, Norway",Phoenix kafé kiosk,,Jektvikveien,8187,Kolvik,Nordland,Jektvika,,Norway,0.81,no,,0.81,© OpenStreetMap contributors,Open Database License,https://www.openstreetmap.org/copyright
"Porsgrunn sentr., Norway",59.14054,9.6561,"Porsgrunn (Porsgrunn), Vestfold og Telemark, Norway",,Porsgrunn,,,,,Porsgrunn,Vestfold og Telemark,Norway,0.5,no,,0.5,,,https://www.whosonfirst.org/docs/licenses/
"Porsgrunn, Norway",59.103735,9.736353765927529,"Porsgrunn, Norway",,,,,,Telemark,Porsgrunn,,Norway,1,no,,1,© OpenStreetMap contributors,Open Database License,https://www.openstreetmap.org/copyright
"Portugalkysten, Norway",,,,,,,,,,,,,,,,,,,
"Pressens hus, Norway",59.9105483,10.7478254,"Pressens Hus, Skippergata, 0154 Oslo, Norway",Pressens Hus,Oslo,Skippergata,0154,Kvadraturen,,Oslo,Oslo,Norway,0.9,no,,0.9,© OpenStreetMap contributors,Open Database License,https://www.openstreetmap.org/copyright
"Puddefjordsbroen, Norway",60.3844292,5.317755539662114,"Puddefjordsbroen, Fyllingsdalsveien, 5056 Bergen, Norway",Puddefjordsbroen,Laksevåg,Fyllingsdalsveien,5056,Gyldenpris,Vestland,Bergen,,Norway,,no,,0,© OpenStreetMap contributors,Open Database License,https://www.openstreetmap.org/copyright
"Råde, Norway",59.33168605,10.842334261608071,"Råde, Norway",,,,,,Østfold,Råde,,Norway,1,no,,1,© OpenStreetMap contributors,Open Database License,https://www.openstreetmap.org/copyright
"Rælingen, Norway",59.89101135,11.078987832315171,"Rælingen, Norway",,,,,,Akershus,Rælingen,,Norway,1,no,,1,© OpenStreetMap contributors,Open Database License,https://www.openstreetmap.org/copyright
"Rafsbotn, Norway",70.0195497,23.5327746,"9538 Rafsbotn - Rässivuono (Alta), Norway",Rafsbotn - Rässivuono,,,9538,,Finnmark,Alta,,Norway,1,no,,1,© OpenStreetMap contributors,Open Database License,https://www.openstreetmap.org/copyright
"Rakke, Norway",58.98235,10.0333417,"Rakke, Stavern, Norway",Rakke,,,3290,Rakke,Vestfold,Stavern,,Norway,1,no,,1,© OpenStreetMap contributors,Open Database License,https://www.openstreetmap.org/copyright
"Rakkestad, Norway",59.36031595,11.421125079931825,"Rakkestad, Norway",,,,,,Østfold,Rakkestad,,Norway,1,no,,1,© OpenStreetMap contributors,Open Database License,https://www.openstreetmap.org/copyright
"Ramberg, Norway",68.6332821,14.6253039,"Ramberg (Ramberg), Norway",Ramberg,,,,,Nordland,Ramberg,,Norway,1,no,,1,© OpenStreetMap contributors,Open Database License,https://www.openstreetmap.org/copyright
"Rånåsfoss, Norway",60.0300793,11.3299803,"Rånåsfoss, Auli, Norway",Rånåsfoss,,,1927,Rånåsfoss,Akershus,Auli,,Norway,1,no,,1,© OpenStreetMap contributors,Open Database License,https://www.openstreetmap.org/copyright
"Redalen, Norway",60.891625,10.6671962,"Redalen (Redalen), Norway",Redalen,,,,,Innlandet,Redalen,,Norway,1,no,,1,© OpenStreetMap contributors,Open Database License,https://www.openstreetmap.org/copyright
"Reinvatnet i Sørreisa, Norway",69.145565,18.157305,"Sorreisa (Sørreisa), Troms og Finnmark, Norway",,Sorreisa,,,,,Sørreisa,Troms og Finnmark,Norway,1,no,,0.5,,,https://www.whosonfirst.org/docs/licenses/
"Rennebu, Norway",62.7662727,9.887330034184988,"Rennebu, Norway",,,,,,Trøndelag,Rennebu,,Norway,1,no,,1,© OpenStreetMap contributors,Open Database License,https://www.openstreetmap.org/copyright
"Rensvik, Norway",63.0960446,7.816946,"6521 Rensvik (Rensvik), Norway",Rensvik,,,6521,,Møre og Romsdal,Rensvik,,Norway,1,no,,1,© OpenStreetMap contributors,Open Database License,https://www.openstreetmap.org/copyright
"Repparfjord, Kvalsund, Norway",70.45,24.28333,"Hammerfest (Repparfjord), Troms og Finnmark, Norway",,Hammerfest,,,,,Repparfjord,Troms og Finnmark,Norway,,no,,0,,,https://www.whosonfirst.org/docs/licenses/
"Resdalsseter., Norway",,,,,,,,,,,,,,,,,,,
"Ridabu, Norway",60.8014356,11.1303364,"2322 Ridabu (Ridabu), Norway",Ridabu,,,2322,,Innlandet,Ridabu,,Norway,1,no,,1,© OpenStreetMap contributors,Open Database License,https://www.openstreetmap.org/copyright
"Ringebu, Norway",61.5572191,10.364927458738272,"Ringebu, Norway",,,,,,Innlandet,Ringebu,,Norway,1,no,,1,© OpenStreetMap contributors,Open Database License,https://www.openstreetmap.org/copyright
"Ringerike, Norway",60.327406249999996,10.021763528256955,"Ringerike, Norway",,,,,,Buskerud,Ringerike,,Norway,1,no,,1,© OpenStreetMap contributors,Open Database License,https://www.openstreetmap.org/copyright
"Ringsaker, Norway",60.9850657,10.84452823847775,"Ringsaker, Norway",,,,,,Innlandet,Ringsaker,,Norway,1,no,,1,© OpenStreetMap contributors,Open Database License,https://www.openstreetmap.org/copyright
"Rissa, Norway",63.5842624,9.959178,"Rissa (Rissa), Norway",Rissa,,,,,Trøndelag,Rissa,,Norway,1,no,,1,© OpenStreetMap contributors,Open Database License,https://www.openstreetmap.org/copyright
"Risvollan, Norway",63.3948812,10.4296417,"Risvollan, Trondheim, Norway",Risvollan,Lerkendal,,7036,Risvollan,Trøndelag,Trondheim,,Norway,1,no,,1,© OpenStreetMap contributors,Open Database License,https://www.openstreetmap.org/copyright
"Rjukan, Norway",59.8786976,8.5941579,"3660 Rjukan, Norway",Rjukan,,,3660,,Telemark,Rjukan,,Norway,1,no,,1,© OpenStreetMap contributors,Open Database License,https://www.openstreetmap.org/copyright
"Rødtvedt, Oslo, Norway",59.9532084,10.8545724,"Rødtvedt gård N, Sandåsveien, 0956 Oslo, Norway",Rødtvedt gård N,,Sandåsveien,0956,Grorud,,Oslo,,Norway,1,no,,0.81,© OpenStreetMap contributors,Open Database License,https://www.openstreetmap.org/copyright
"Rognes, Norway",63.0076274,10.4522657,"7295 Rognes (Rognes), Norway",Rognes,,,7295,,Trøndelag,Rognes,,Norway,1,no,,1,© OpenStreetMap contributors,Open Database License,https://www.openstreetmap.org/copyright
"Rollag, Norway",60.01567265,9.208074285034133,"Rollag, Norway",,,,,,Buskerud,Rollag,,Norway,1,no,,1,© OpenStreetMap contributors,Open Database License,https://www.openstreetmap.org/copyright
"Rollag, Numedal, Norway",69.5691659,20.5911524,"Numedal, Kåfjord, Norway",Numedal,,,,Numedal,Troms,Kåfjord,,Norway,1,no,,1,© OpenStreetMap contributors,Open Database License,https://www.openstreetmap.org/copyright
"Romsdalsfjorden, Norway",,,,,,,,,,,,,,,,,,,
"Røra, Norway",63.8583693,11.4006052,"Røra (Røra), Norway",Røra,,,,,Trøndelag,Røra,,Norway,1,no,,1,© OpenStreetMap contributors,Open Database License,https://www.openstreetmap.org/copyright
"Røros sentrum, Norway",62.574732,11.380198,"Roros (Roros), Trøndelag, Norway",,Roros,,,,,Roros,Trøndelag,Norway,0.63,no,,0.63,,,https://www.whosonfirst.org/docs/licenses/
"Røros, Norway",62.569515100000004,11.660436507014776,"Røros, Norway",,,,,,Trøndelag,Røros,,Norway,1,no,,1,© OpenStreetMap contributors,Open Database License,https://www.openstreetmap.org/copyright
"Rørvik, Norway",64.8615745,11.2379128,"7900 Rørvik, Norway",Rørvik,,,7900,,Trøndelag,Rørvik,,Norway,1,no,,1,© OpenStreetMap contributors,Open Database License,https://www.openstreetmap.org/copyright
"ROTA ved Malviklandet, Norway",,,,,,,,,,,,,,,,,,,
"Røverdalen, Norway",,,,,,,,,,,,,,,,,,,
"Rudeløkka, Oslo, Norway",,,,,,,,,,,,,,,,,,,
"Rudsbygd, Follebu, Norway",61.23333,10.28333,"Gausdal (Follebu), Innlandet, Norway",,Gausdal,,,,,Follebu,Innlandet,Norway,1,no,,0.5,,,https://www.whosonfirst.org/docs/licenses/
"Rydningen, 7000 Tr.heim., Norway",63.387227,10.35552,"Rydningen, Trondheim, Norway",,Trondheim,Rydningen,,,,Trondheim,Trøndelag,Norway,0.4444444444444444,no,0.4444444444444444,0.2222222222222222,© OpenStreetMap contributors,Open Database License,https://www.openstreetmap.org/copyright
"Rygge, Moss, Norway",59.3779677,10.7480223,"Rygge, Stasjonsveien, 1580 Rygge, Norway",Rygge,,Stasjonsveien,1580,Halmstad,Østfold,Rygge,,Norway,1,no,,1,© OpenStreetMap contributors,Open Database License,https://www.openstreetmap.org/copyright
"Rykene, Norway",58.4098638,8.637409,"4821 Rykene (Rykene), Norway",Rykene,,,4821,,Agder,Rykene,,Norway,1,no,,1,© OpenStreetMap contributors,Open Database License,https://www.openstreetmap.org/copyright
"Sædalen, Fana, Norway",60.349924,5.392715864936441,"Sædalen skole, Nye Sædalsveien, 5099 Bergen, Norway",Sædalen skole,Fana,Nye Sædalsveien,5099,,Vestland,Bergen,,Norway,1,no,0.3969,0.3969,© OpenStreetMap contributors,Open Database License,https://www.openstreetmap.org/copyright
"Saksehaug, Norway",,,,,,,,,,,,,,,,,,,
"Sakshaug, Norway",63.8743855,11.2741767,"7670 Sakshaug (Straumen), Norway",Sakshaug,,,7670,,Trøndelag,Straumen,,Norway,1,no,,1,© OpenStreetMap contributors,Open Database License,https://www.openstreetmap.org/copyright
"Saltstraumen, Norway",67.2339019,14.6257317,"Saltstraumen - Stuorstrávve - Stuorrastrávve (Saltstraumen - Stuorstrávve - Stuorrastrávve), Norway",Saltstraumen - Stuorstrávve - Stuorrastrávve,,,,,Nordland,Saltstraumen - Stuorstrávve - Stuorrastrávve,,Norway,1,no,,1,© OpenStreetMap contributors,Open Database License,https://www.openstreetmap.org/copyright
"Saltvik, Norway",59.3834666,5.4736005,"Saltvik, Førland, Norway",Saltvik,,,5570,Saltvik,Rogaland,Førland,,Norway,1,no,,1,© OpenStreetMap contributors,Open Database License,https://www.openstreetmap.org/copyright
"Samdalen, Norway",60.3701843,5.3042552,"Samdalen, Bergen, Norway",Samdalen,Fyllingsdalen,,5146,Samdalen,Vestland,Bergen,,Norway,1,no,,1,© OpenStreetMap contributors,Open Database License,https://www.openstreetmap.org/copyright
"Samsjøen i Ådalen, Norway",63.087472,10.690686,"Samsjøen naturreservat, Midtre Gauldal, Norway",,,Samsjøen naturreservat,,,,Midtre Gauldal,Trøndelag,Norway,0.3969,no,,0.3969,© OpenStreetMap contributors,Open Database License,https://www.openstreetmap.org/copyright
"Sandbakken, Stryn, Norway",61.906336,6.718692,"Stryn (Stryn), Vestland, Norway",,Stryn,,,,,Stryn,Vestland,Norway,1,no,,0.5,,,https://www.whosonfirst.org/docs/licenses/
"Sandefjord, Norway",59.07990035,10.28043216859497,"Sandefjord, Norway",,,,,,Vestfold,Sandefjord,,Norway,1,no,,1,© OpenStreetMap contributors,Open Database License,https://www.openstreetmap.org/copyright
"Sandnes, Norway",58.983132049999995,6.394641047340787,"Sandnes, Norway",,,,,,Rogaland,Sandnes,,Norway,1,no,,1,© OpenStreetMap contributors,Open Database License,https://www.openstreetmap.org/copyright
"Sandøysund, Norway",,,,,,,,,,,,,,,,,,,
"Sandvika, Norway",59.8921158,10.5249914,"1337 Sandvika, Norway",Sandvika,,,1337,,Akershus,Sandvika,,Norway,1,no,,1,© OpenStreetMap contributors,Open Database License,https://www.openstreetmap.org/copyright
"Sandviksbroen, Drammensvn, Norway",,,,,,,,,,,,,,,,,,,
"Santa Ponza, Spania, Norway",59.941899,10.482188,"Santa´s Cruise, Baerum, Norway",,,Santa´s Cruise,,,,Baerum,Viken,Norway,,no,,0,© OpenStreetMap contributors,Open Database License,https://www.openstreetmap.org/copyright
"Sarpsborg, Norway",59.254955,11.229781140849298,"Sarpsborg, Norway",,,,,,Østfold,Sarpsborg,,Norway,1,no,,1,© OpenStreetMap contributors,Open Database License,https://www.openstreetmap.org/copyright
"Saupstad, Norway",68.2536972,13.6470779,"Saupstad (Saupstad), Norway",Saupstad,,,,,Nordland,Saupstad,,Norway,1,no,,1,© OpenStreetMap contributors,Open Database License,https://www.openstreetmap.org/copyright
"Selbustrand, Norway",63.248871,10.9515849,"Selbustrand, Selbu, Norway",Selbustrand,,,7584,Selbustrand,Trøndelag,Selbu,,Norway,1,no,,1,© OpenStreetMap contributors,Open Database License,https://www.openstreetmap.org/copyright
"Seljord, Norway",59.57344535,8.512253409438468,"Seljord, Norway",,,,,,Telemark,Seljord,,Norway,1,no,,1,© OpenStreetMap contributors,Open Database License,https://www.openstreetmap.org/copyright
"Selvbyggervn. Oslo 5, Norway",,,,,,,,,,,,,,,,,,,
"Sem, Norway",59.2821273,10.3301166,"3170 Sem (Sem), Norway",Sem,,,3170,,Vestfold,Sem,,Norway,1,no,,1,© OpenStreetMap contributors,Open Database License,https://www.openstreetmap.org/copyright
"Sendsjøen, Norway",,,,,,,,,,,,,,,,,,,
"Setskogen, Norway",,,,,,,,,,,,,,,,,,,
"Siljan, Norway",59.30989905,9.68941570620385,"3748 Siljan, Norway",,,,3748,,Telemark,Siljan,,Norway,1,no,,1,© OpenStreetMap contributors,Open Database License,https://www.openstreetmap.org/copyright
"Sinsenkrysset, Norway",62.9944528,8.8239215,"Sinsenkrysset, Mogstad, Møre og Romsdal, Norway",Sinsenkrysset,,,,,Møre og Romsdal,Mogstad,,Norway,1,no,,1,© OpenStreetMap contributors,Open Database License,https://www.openstreetmap.org/copyright
"Sjetnhaugan, Norway",63.369096,10.396615,"Sjetnhaugan, Lykkmarka, 7081 Trondheim, Norway",Sjetnhaugan,Lerkendal,Lykkmarka,7081,Sjetnmarka,Trøndelag,Trondheim,,Norway,,no,,0,© OpenStreetMap contributors,Open Database License,https://www.openstreetmap.org/copyright
"Skansen brannstasj., Norway",69.65291504999999,18.964263079367846,"Skansen, Søndre Tollbodgate, 9008 Tromsø, Norway",Skansen,Vervet,Søndre Tollbodgate,9008,Nordbyen,Troms,Tromsø,Troms og Finnmark,Norway,,no,,0.56,© OpenStreetMap contributors,Open Database License,https://www.openstreetmap.org/copyright
"Skansen branstasjon, Norway",69.65291504999999,18.964263079367846,"Skansen, Søndre Tollbodgate, 9008 Tromsø, Norway",Skansen,Vervet,Søndre Tollbodgate,9008,Nordbyen,Troms,Tromsø,Troms og Finnmark,Norway,,no,,0.56,© OpenStreetMap contributors,Open Database License,https://www.openstreetmap.org/copyright
"Skardalsvann, Oppdal, Norway",62.593324,9.688246,"Oppdal (Oppdal), Trøndelag, Norway",,Oppdal,,,,,Oppdal,Trøndelag,Norway,1,no,,0.5,,,https://www.whosonfirst.org/docs/licenses/
"Skarde, Norway",62.1607833,5.936628,"Skarde, Lauvstad, Norway",Skarde,,,6133,Skarde,Møre og Romsdal,Lauvstad,,Norway,,no,,0,© OpenStreetMap contributors,Open Database License,https://www.openstreetmap.org/copyright
"Skarnes, Norway",60.2539143,11.6848561,"2100 Skarnes (Skarnes), Norway",Skarnes,,,2100,,Innlandet,Skarnes,,Norway,1,no,,1,© OpenStreetMap contributors,Open Database License,https://www.openstreetmap.org/copyright
"Skarvevatnet, Norway",61.8334884,5.864737220001279,"Skarvevatnet, Gloppen, Vestland, Norway",Skarvevatnet,,,,,Vestland,Gloppen,,Norway,1,no,,1,© OpenStreetMap contributors,Open Database License,https://www.openstreetmap.org/copyright
"Skeikampen, Norway",61.333291,10.089478,"Skeikampen fjellandsby, Gausdal, Norway",,,Skeikampen fjellandsby,,,,Gausdal,Innlandet,Norway,,no,,0.9,© OpenStreetMap contributors,Open Database License,https://www.openstreetmap.org/copyright
"Ski, Norway",59.7199326,10.8382736,"1424 Ski, Norway",Ski,,,1424,,Akershus,Ski,,Norway,1,no,,1,© OpenStreetMap contributors,Open Database License,https://www.openstreetmap.org/copyright
"Skien, Norway",59.2662883,9.531135447537467,"Skien, Norway",,,,,,Telemark,Skien,,Norway,1,no,,1,© OpenStreetMap contributors,Open Database License,https://www.openstreetmap.org/copyright
"Skjåk, Norway",61.9349863,7.914535802948706,"Skjåk, Norway",,,,,,Innlandet,Skjåk,,Norway,1,no,,1,© OpenStreetMap contributors,Open Database License,https://www.openstreetmap.org/copyright
"Skjetnemarka, Norway",,,,,,,,,,,,,,,,,,,
"Skjetten, Norway",59.9675537,11.000441,"2013 Skjetten (Skjetten), Norway",Skjetten,,,2013,,Akershus,Skjetten,,Norway,1,no,,1,© OpenStreetMap contributors,Open Database License,https://www.openstreetmap.org/copyright
"Skjevstad, Tomma, Norway",60.65659,10.82255,"Vestre Skjevstad, Ostre Toten, Innlandet, Norway",Vestre Skjevstad,,,,,,Ostre Toten,Innlandet,Norway,,no,,1,,CC BY 4.0,https://www.geonames.org/datasources/
"Skjoldtun, Norway",60.3039459,5.3376707,"Spar Skjoldtun, Skjoldstølen, 5236 Bergen, Norway",Spar Skjoldtun,Fana,Skjoldstølen,5236,Nesttun,Vestland,Bergen,Vestland,Norway,0.9,no,,0.9,© OpenStreetMap contributors,Open Database License,https://www.openstreetmap.org/copyright
"Skorpa, Norway",79.65862874999999,10.709248442710262,"Skorpa fuglereservat, Svalbard, Norway",Skorpa fuglereservat,,,,,,,Svalbard,Norway,,no,,1,© OpenStreetMap contributors,Open Database License,https://www.openstreetmap.org/copyright
"Skorstad, Norway",64.579588,11.189931,"Skorstad (Skorstad), Norway",Skorstad,,,,,Trøndelag,Skorstad,,Norway,1,no,,1,© OpenStreetMap contributors,Open Database License,https://www.openstreetmap.org/copyright
"Skotterud, Norway",59.9857808,12.1235101,"2230 Skotterud (Skotterud), Norway",Skotterud,,,2230,,Innlandet,Skotterud,,Norway,1,no,,1,© OpenStreetMap contributors,Open Database License,https://www.openstreetmap.org/copyright
"Skovgård, Charlottenlund, Norway",63.4281167,10.4951917,"Skovgård, 7058 Trondheim, Norway",Skovgård,Østbyen,,7058,Charlottenlund,Trøndelag,Trondheim,,Norway,1,no,,1,© OpenStreetMap contributors,Open Database License,https://www.openstreetmap.org/copyright
"Skøyenmoen, Ilseng, Norway",,,,,,,,,,,,,,,,,,,
"Skråfjord, Norway",,,,,,,,,,,,,,,,,,,
"Skullerud, Oslo, Norway",59.8646673,10.8402201,"Skullerud, Oslo, Norway",Skullerud,,,0694,Skullerud,,Oslo,,Norway,1,no,,1,© OpenStreetMap contributors,Open Database License,https://www.openstreetmap.org/copyright
"Skurdalen, Norway",60.4686527,8.2241666,"Skurdal (Skurdal), Norway",Skurdal,,,,,Buskerud,Skurdal,,Norway,1,no,,1,© OpenStreetMap contributors,Open Database License,https://www.openstreetmap.org/copyright
"Skyåsvn. i Tr.heim, Norway",69.9480206,23.186483,"The Rock Art of Alta, Altaveien, 9512 Alta, Norway",The Rock Art of Alta,,Altaveien,9512,Hjemmeluft øvre,Finnmark,Alta,Troms og Finnmark,Norway,,no,,0,© OpenStreetMap contributors,Open Database License,https://www.openstreetmap.org/copyright
"Slagen, Norway",59.3039116,10.4423654,"3123 Slagen (Tønsberg), Norway",Slagen,,,3123,,Vestfold,Tønsberg,,Norway,1,no,,1,© OpenStreetMap contributors,Open Database License,https://www.openstreetmap.org/copyright
"Slåstad, Norway",60.2796599,11.7702139,"Slåstad, Sør-Odal, Norway",Slåstad,,,2110,Slåstad,Innlandet,Sør-Odal,,Norway,1,no,,1,© OpenStreetMap contributors,Open Database License,https://www.openstreetmap.org/copyright
"Slettevik, Norway",59.76608,5.16722,"Slettevik, Bomlo, Vestland, Norway",Slettevik,,,,,,Bomlo,Vestland,Norway,1,no,,1,,CC BY 4.0,https://www.geonames.org/datasources/
"Slettheia, 4620 Vågsbygd, Norway",58.123652347,7.945734574,"4620 Kristiansand, Norway",,,,4620,,Agder,Kristiansand,,Norway,1,no,,1,© OpenStreetMap contributors,Open Database License,https://www.openstreetmap.org/copyright
"Snarum, Norway",60.0234599,9.8755676,"Snarum (Snarum), Norway",Snarum,,,,,Buskerud,Snarum,,Norway,1,no,,1,© OpenStreetMap contributors,Open Database License,https://www.openstreetmap.org/copyright
"Snippen, Alstadhaug, Norway",65.927725,12.463142,"Snippen, Søvikveien, 8804 Alstahaug, Norway",Snippen,,Søvikveien,8804,Søvikstranda,Nordland,Alstahaug,Nordland,Norway,0.81,no,0.81,0.81,© OpenStreetMap contributors,Open Database License,https://www.openstreetmap.org/copyright
"Sofiesgt., Norway",,,,,,,,,,,,,,,,,,,
"Sognefjorden, Norway",61.177585,6.695892933628757,"Sognefjorden, 6848, Norway",Sognefjorden,,,6848,,,,,Norway,1,no,,1,© OpenStreetMap contributors,Open Database License,https://www.openstreetmap.org/copyright
"Solborgvannet, Norway",,,,,,,,,,,,,,,,,,,
"Solbrå, Leirsund, Norway",59.988417,11.107228,"Lillestrøm (Leirsund), Viken, Norway",,Lillestrøm,,,,,Leirsund,Viken,Norway,1,no,,0.5,,,https://www.whosonfirst.org/docs/licenses/
"Sollien, Bergen, Norway",60.3696218,5.3678539,"Sollien, 5096 Bergen, Norway",Sollien,Årstad,Sollien,5096,Landås,Vestland,Bergen,,Norway,1,no,1,1,© OpenStreetMap contributors,Open Database License,https://www.openstreetmap.org/copyright
"Solør, Norway",69.1212223,18.7518888,"Solør, Målselv, Norway",Solør,,,,Solør,Troms,Målselv,,Norway,1,no,,1,© OpenStreetMap contributors,Open Database License,https://www.openstreetmap.org/copyright
"Solvang, Norway",63.0965401,9.2329563,"Solvang (Solvang), Norway",Solvang,,,,,Trøndelag,Solvang,,Norway,1,no,,1,© OpenStreetMap contributors,Open Database License,https://www.openstreetmap.org/copyright
"Sommerset, Sørfold, Norway",67.5451561,15.6590776,"Sommerset, Norway",Sommerset,,Sommerset,,,Nordland,Sommerset,,Norway,1,no,1,1,© OpenStreetMap contributors,Open Database License,https://www.openstreetmap.org/copyright
"Søndre Aulie, Norway",60.1923507,10.7335391,"Søndre Lauvlia, 2743 Søndre Lauvlia, Norway",Søndre Lauvlia,,,2743,,Akershus,Søndre Lauvlia,Viken,Norway,0.567,no,,0.5103,© OpenStreetMap contributors,Open Database License,https://www.openstreetmap.org/copyright
"Songe, Norway",58.4736964,8.7985478,"Songe, Arendal, Norway",Songe,,,4842,Songe,Agder,Arendal,,Norway,1,no,,1,© OpenStreetMap contributors,Open Database License,https://www.openstreetmap.org/copyright
"Sonvatnet, Norway",63.3828904,11.429974241641512,"Ytre Sonvatnet, Stjørdal, Trøndelag, Norway",Ytre Sonvatnet,,,,,Trøndelag,Stjørdal,,Norway,0.9,no,,0.9,© OpenStreetMap contributors,Open Database License,https://www.openstreetmap.org/copyright
"Sør-Gardermoen postkontor, Norway",69.564227,29.720778,"Sor-Varanger, Troms og Finnmark, Norway",,,,,,,Sor-Varanger,Troms og Finnmark,Norway,0.3969,no,,0.099225,,,https://www.whosonfirst.org/docs/licenses/
"Sør Yemen, Norway",60.224164,11.757689,"Sor-Odal, Innlandet, Norway",,,,,,,Sor-Odal,Innlandet,Norway,0.63,no,,0.42000000000000004,,,https://www.whosonfirst.org/docs/licenses/
"Sørbyhaugen, Oslo, Norway",59.9374503,10.6759282,"Sørbyhaugen, 0379 Oslo, Norway",Sørbyhaugen,Nedre Smestad,Sørbyhaugen,0379,Ullern,,Oslo,,Norway,1,no,1,1,© OpenStreetMap contributors,Open Database License,https://www.openstreetmap.org/copyright
"Sortland, Norway",68.76729605,15.367917868560635,"Sortland, Norway",,,,,,Nordland,Sortland,,Norway,1,no,,1,© OpenStreetMap contributors,Open Database License,https://www.openstreetmap.org/copyright
"Sørum, Norway",60.0059114,11.2315511,"1923 Sørum (Sørum), Norway",Sørum,,,1923,,Akershus,Sørum,,Norway,1,no,,1,© OpenStreetMap contributors,Open Database License,https://www.openstreetmap.org/copyright
"Søtefjell, Norway",,,,,,,,,,,,,,,,,,,
"Sousse, Norway",,,,,,,,,,,,,,,,,,,
"Spareland vMoss, Norway",69.725136,30.071372,"Spareland, Prestøyveien, 9901 Kirkenes, Norway",Spareland,Saga,Prestøyveien,9901,,Finnmark,Kirkenes,Troms og Finnmark,Norway,,no,,0,© OpenStreetMap contributors,Open Database License,https://www.openstreetmap.org/copyright
"Spedalen, Norway",58.3693834,8.6116568,"Spedalen, Grimstad, Norway",Spedalen,,,4885,Spedalen,Agder,Grimstad,,Norway,1,no,,1,© OpenStreetMap contributors,Open Database License,https://www.openstreetmap.org/copyright
"Spydeberg, Norway",59.6152567,11.0788072,"1820 Spydeberg (Spydeberg), Norway",Spydeberg,,,1820,,Østfold,Spydeberg,,Norway,1,no,,1,© OpenStreetMap contributors,Open Database License,https://www.openstreetmap.org/copyright
"St. Hanshaugen i Oslo, Norway",59.9179144,10.7375902,"St. Olavs gate, 0164 Oslo, Norway",St. Olavs gate,Tullin,St. Olavs gate,0164,Sentrum,,Oslo,,Norway,1,no,0.81,0.81,© OpenStreetMap contributors,Open Database License,https://www.openstreetmap.org/copyright
"Stabekk, Norway",59.9083417,10.6015667,"Stabekk, Bærum, Norway",Stabekk,,,1368,Stabekk,Akershus,Bærum,,Norway,1,no,,1,© OpenStreetMap contributors,Open Database License,https://www.openstreetmap.org/copyright
"Stampen, Norway",60.5284543,11.9759426,"Stampen (Stampen), Norway",Stampen,,,,,Innlandet,Stampen,,Norway,1,no,,1,© OpenStreetMap contributors,Open Database License,https://www.openstreetmap.org/copyright
"Stange, Norway",60.6244351,11.383120762784838,"Stange, Norway",,,,,,Innlandet,Stange,,Norway,1,no,,1,© OpenStreetMap contributors,Open Database License,https://www.openstreetmap.org/copyright
"Stavanger lufthavn, Sola, Norway",58.8822239,5.6262353,"Stavanger lufthavn, Flyplassvegen, 4055 Sola, Norway",Stavanger lufthavn,,Flyplassvegen,4055,,Rogaland,Sola,,Norway,1,no,,1,© OpenStreetMap contributors,Open Database License,https://www.openstreetmap.org/copyright
"Stavanger, Norway",58.9699675,5.7318101,"Stavanger, Norway",,,,,,Rogaland,Stavanger,,Norway,1,no,,1,© OpenStreetMap contributors,Open Database License,https://www.openstreetmap.org/copyright
"Stavern, Norway",58.9983397,10.0360061,"3290 Stavern, Norway",Stavern,,,3290,,Vestfold,Stavern,,Norway,1,no,,1,© OpenStreetMap contributors,Open Database License,https://www.openstreetmap.org/copyright
"Stavsjø, Norway",60.8055968,10.8391555,"2353 Stavsjø (Stavsjø), Norway",Stavsjø,,,2353,,Innlandet,Stavsjø,,Norway,1,no,,1,© OpenStreetMap contributors,Open Database License,https://www.openstreetmap.org/copyright
"Steinestø - Knarvik, Norway",60.546916,5.28275,"Alver (Knarvik), Vestland, Norway",,Alver,,,,,Knarvik,Vestland,Norway,1,no,,0.5,,,https://www.whosonfirst.org/docs/licenses/
"Steinkjer, Norway",64.050737,11.481908998592733,"Steinkjer, Norway",,,,,,Trøndelag,Steinkjer,,Norway,1,no,,1,© OpenStreetMap contributors,Open Database License,https://www.openstreetmap.org/copyright
"Stemalen, Tønsberg, Norway",,,,,,,,,,,,,,,,,,,
"Stenb.Haugen, Norway",,,,,,,,,,,,,,,,,,,
"Stjørdal, Norway",63.4627028,11.134472299094192,"Stjørdal, Norway",,,,,,Trøndelag,Stjørdal,,Norway,1,no,,1,© OpenStreetMap contributors,Open Database License,https://www.openstreetmap.org/copyright
"Stokke, Norway",59.2223339,10.3006809,"3160 Stokke (Stokke), Norway",Stokke,,,3160,,Vestfold,Stokke,,Norway,1,no,,1,© OpenStreetMap contributors,Open Database License,https://www.openstreetmap.org/copyright
"Storbukt, Honningsvåg, Norway",70.979242,25.975853,"Nordkapp (Honningsvåg), Troms og Finnmark, Norway",,Nordkapp,,,,,Honningsvåg,Troms og Finnmark,Norway,1,no,,0.5,,,https://www.whosonfirst.org/docs/licenses/
"Stord, Norway",59.82502055,5.488370639966453,"Stord, Norway",,,,,,Vestland,Stord,,Norway,1,no,,1,© OpenStreetMap contributors,Open Database License,https://www.openstreetmap.org/copyright
"Stordalsvannet, Norway",58.64193,9.06853,"Størdalsvannet, Tvedestrand, Agder, Norway",Størdalsvannet,,,,,,Tvedestrand,Agder,Norway,,no,,0,,CC BY 4.0,https://www.geonames.org/datasources/
"Storvågan, Kabelvåg, Norway",68.2078511,14.454021027894658,"Storvåganveien, 8310 Kabelvåg, Norway",Storvågan,,Storvåganveien,8310,,Nordland,Kabelvåg,,Norway,1,no,1,1,© OpenStreetMap contributors,Open Database License,https://www.openstreetmap.org/copyright
"Stovner, Norway",59.9580238,10.91755780622421,"Stovner, Oslo, Norway",,,,,Stovner,,Oslo,Stovner,Norway,,no,,1,© OpenStreetMap contributors,Open Database License,https://www.openstreetmap.org/copyright
"Stovnerbakken, Oslo 5, Norway",59.95465,10.935802,"Stovnerbakken, Høybråten, Oslo, Norway",Stovnerbakken,Oslo,,,Høybråten,,Oslo,Oslo,Norway,1,no,,0.96,© OpenStreetMap contributors,Open Database License,https://www.openstreetmap.org/copyright
"Stranda, Norway",62.1678462,6.930213683468532,"Stranda, Norway",,,,,,Møre og Romsdal,Stranda,,Norway,1,no,,1,© OpenStreetMap contributors,Open Database License,https://www.openstreetmap.org/copyright
"Strandveien,  2300 Hamar, Norway",60.804767,11.063506,"Hamar (Hamar), Innlandet, Norway",,Hamar,,,,,Hamar,Innlandet,Norway,1,no,,0.5,,,https://www.whosonfirst.org/docs/licenses/
"Strandveien, 2300 Hamar, Norway",60.804767,11.063506,"Hamar (Hamar), Innlandet, Norway",,Hamar,,,,,Hamar,Innlandet,Norway,1,no,,0.5,,,https://www.whosonfirst.org/docs/licenses/
"Straumen, Norway",63.3321928,8.0749565,"Straumen (Straumen), Norway",Straumen,,,,,Møre og Romsdal,Straumen,,Norway,1,no,,1,© OpenStreetMap contributors,Open Database License,https://www.openstreetmap.org/copyright
"Straumsjøen, Norway",68.6947074,14.4658427,"Straumsjøen, Straume, Norway",Straumsjøen,,,,Straumsjøen,Nordland,Straume,,Norway,1,no,,1,© OpenStreetMap contributors,Open Database License,https://www.openstreetmap.org/copyright
"Strømsbu v/Arendal, Norway",58.4566587,8.7527469,"Strømsbu, Arendal, Norway",Strømsbu,,,4839,Strømsbu,Agder,Arendal,,Norway,1,no,,0.25,© OpenStreetMap contributors,Open Database License,https://www.openstreetmap.org/copyright
"Stryn, Norway",61.8218058,6.802968514467588,"Stryn, Norway",,,,,,Vestland,Stryn,,Norway,1,no,,1,© OpenStreetMap contributors,Open Database License,https://www.openstreetmap.org/copyright
"Sulafjellet, Norway",64.89861,10.79667,"Sulafjellet, Nærøysund, Trøndelag, Norway",Sulafjellet,,,,,,Nærøysund,Trøndelag,Norway,,no,,0,,CC BY 4.0,https://www.geonames.org/datasources/
"Sulitjelma, Norway",67.1329051,16.0773781,"Sulitjelma - Sulisjielmmá (Sulitjelma - Sulisjielmmá), Norway",Sulitjelma - Sulisjielmmá,,,,,Nordland,Sulitjelma - Sulisjielmmá,,Norway,1,no,,1,© OpenStreetMap contributors,Open Database License,https://www.openstreetmap.org/copyright
"Sundalen, Norway",,,,,,,,,,,,,,,,,,,
"Sundsbarm, Norway",59.5346277,8.4648696,"Sundsbarm, Vestfold og Telemark, Norway",Sundsbarm,,,,,Telemark,Sundsbarm,Vestfold og Telemark,Norway,,no,,0,© OpenStreetMap contributors,Open Database License,https://www.openstreetmap.org/copyright
"Svarstad, Norway",60.0667258,10.2109082,"3530 Svarstad (Svarstad), Norway",Svarstad,,,3530,,Buskerud,Svarstad,,Norway,1,no,,1,© OpenStreetMap contributors,Open Database License,https://www.openstreetmap.org/copyright
"Svartebotn, Norway",59.5904246,6.3626947,"Svartebotn, 4209 Sauda, Norway",Svartebotn,,,4209,,Rogaland,Sauda,Rogaland,Norway,,no,,0,© OpenStreetMap contributors,Open Database License,https://www.openstreetmap.org/copyright
"Svartnes Fergestad, Norway",70.35869,31.03002,"Vardo (Svartnes), Troms og Finnmark, Norway",,Vardo,,,,,Svartnes,Troms og Finnmark,Norway,1,no,,0.625,,,https://www.whosonfirst.org/docs/licenses/
"Sveio, Norway",59.61370615,5.4117567089092296,"Sveio, Norway",,,,,,Vestland,Sveio,,Norway,1,no,,1,© OpenStreetMap contributors,Open Database License,https://www.openstreetmap.org/copyright
"Svensby, Norway",69.6690882,19.8048465,"Svensby - Bávttit (Svensby - Bávttit), Norway",Svensby - Bávttit,,,,,Troms,Svensby - Bávttit,,Norway,1,no,,1,© OpenStreetMap contributors,Open Database License,https://www.openstreetmap.org/copyright
"Svindal, Norway",59.881808,11.2003979,"1903 Svindal (Svindal), Norway",Svindal,,,1903,,Akershus,Svindal,,Norway,1,no,,1,© OpenStreetMap contributors,Open Database License,https://www.openstreetmap.org/copyright
"Sylte, Vanylven, Norway",62.0514713,5.6204737,"6144 Sylte (Sylte), Norway",Sylte,,,6144,,Møre og Romsdal,Sylte,,Norway,1,no,,0.5,© OpenStreetMap contributors,Open Database License,https://www.openstreetmap.org/copyright
"Tana, Norway",70.28233420000001,27.891327153538903,"Tana, Norway",,,,,,Finnmark,Tana,,Norway,1,no,,1,© OpenStreetMap contributors,Open Database License,https://www.openstreetmap.org/copyright
"Tarva, Norway",63.8023666,9.4154843,"7166 Tarva (Tarva), Norway",Tarva,,,7166,,Trøndelag,Tarva,,Norway,,no,,1,© OpenStreetMap contributors,Open Database License,https://www.openstreetmap.org/copyright
"Tisvattnet, Norway",,,,,,,,,,,,,,,,,,,
"Titlestad, Norway",60.2671881,5.3553888,"Titlestad, 5243 Bergen, Norway",Titlestad,Fana,,5243,Nordheim,Vestland,Bergen,,Norway,1,no,,1,© OpenStreetMap contributors,Open Database License,https://www.openstreetmap.org/copyright
"Tjeldøy, Norway",68.3881775,16.1345708,"Tjeldøy kystfort, Tjeldoddveien, Tjeldsund, Norway",Tjeldøy kystfort,,Tjeldoddveien,,Odden,Troms,Tjeldsund,Troms og Finnmark,Norway,0.9,no,,0.9,© OpenStreetMap contributors,Open Database License,https://www.openstreetmap.org/copyright
"Tjølling, Norway",59.0560139,10.1278611,"Tjølling prestegård, Tjøllingvollen, Norway",Tjølling prestegård,,,3261,Tjølling prestegård,Vestfold,Tjøllingvollen,,Norway,0.9,no,,0.9,© OpenStreetMap contributors,Open Database License,https://www.openstreetmap.org/copyright
"Tjøme, Norway",59.11097325,10.39958349463733,"Tjøme, 3145 Kirkebygda, Norway",Tjøme,,,3145,,Vestfold,Kirkebygda,,Norway,1,no,,1,© OpenStreetMap contributors,Open Database License,https://www.openstreetmap.org/copyright
"Tolga, Norway",62.3718777,11.070463712524084,"Tolga, Norway",,,,,,Innlandet,Tolga,,Norway,1,no,,1,© OpenStreetMap contributors,Open Database License,https://www.openstreetmap.org/copyright
"Tollbodgt. Kr.sand, Norway",,,,,,,,,,,,,,,,,,,
"Tollevik, Bømlo, Norway",59.789897,5.222814,"Bomlo, Vestland, Norway",,,,,,,Bomlo,Vestland,Norway,1,no,,0.5,,,https://www.whosonfirst.org/docs/licenses/
"Tolvsrød v/Tønsberg, Norway",59.272637,10.463211,"Meny Tolvsrød, Vidars vei, 3151 Tønsberg, Norway",Meny Tolvsrød,Faerder,Vidars vei,3151,Gauterød,Vestfold,Tønsberg,Vestfold og Telemark,Norway,1,no,,0.63,© OpenStreetMap contributors,Open Database License,https://www.openstreetmap.org/copyright
"Tolvsrød, Norway",59.2724442,10.471709,"Tolvsrød, Tønsberg, Norway",Tolvsrød,,,3152,Tolvsrød,Vestfold,Tønsberg,,Norway,1,no,,1,© OpenStreetMap contributors,Open Database License,https://www.openstreetmap.org/copyright
"Tomtehaugen, Råholt, Norway",60.269596,11.186613,"Eidsvoll (Råholt), Viken, Norway",,Eidsvoll,,,,,Råholt,Viken,Norway,1,no,,0.5,,,https://www.whosonfirst.org/docs/licenses/
"Tønsberg, Norway",59.3549795,10.282049110877239,"Tønsberg, Norway",,,,,,Vestfold,Tønsberg,,Norway,1,no,,1,© OpenStreetMap contributors,Open Database License,https://www.openstreetmap.org/copyright
"Tonstad, Norway",58.6645543,6.7160736,"4440 Tonstad (Tonstad), Norway",Tonstad,,,4440,,Agder,Tonstad,,Norway,1,no,,1,© OpenStreetMap contributors,Open Database License,https://www.openstreetmap.org/copyright
"Tørberget, Norway",61.1348765,12.1062924,"2429 Tørberget (Tørberget), Norway",Tørberget,,,2429,,Innlandet,Tørberget,,Norway,1,no,,1,© OpenStreetMap contributors,Open Database License,https://www.openstreetmap.org/copyright
"Torvik, Norway",59.8079708,10.6893814,"1459 Torvik (Torvik), Norway",Torvik,,,1459,,Akershus,Torvik,,Norway,1,no,,1,© OpenStreetMap contributors,Open Database License,https://www.openstreetmap.org/copyright
"Tovik, Norway",68.6801321,16.8689711,"9445 Tovika (Tovika), Norway",Tovika,,,9445,,Troms,Tovika,,Norway,0.75,no,,0.75,© OpenStreetMap contributors,Open Database License,https://www.openstreetmap.org/copyright
"Tøyen, Oslo 5, Norway",59.9169677,10.7691028,"Tøyen, Oslo, Norway",Tøyen,,,0578,Tøyen,,Oslo,,Norway,0.9,no,,0.9,© OpenStreetMap contributors,Open Database License,https://www.openstreetmap.org/copyright
"Trandumskogen, Norway",60.2189241,11.1179757,"Henrettede i Trandumskogen, Trandumvegen, 2058 Ullensaker, Norway",Henrettede i Trandumskogen,Trandum,Trandumvegen,2058,Melby,Akershus,Ullensaker,Viken,Norway,0.81,no,,0.81,© OpenStreetMap contributors,Open Database License,https://www.openstreetmap.org/copyright
"Tretten i Gudbrandsdalen, Norway",59.6727667,11.0673417,"Gudbrandsdalen, Indre Østfold, Norway",Gudbrandsdalen,,,1821,Gudbrandsdalen,Østfold,Indre Østfold,,Norway,1,no,,0.25,© OpenStreetMap contributors,Open Database License,https://www.openstreetmap.org/copyright
"Tretten, Norway",69.7994332,21.1236767,"Tretten (Tretten), Norway",Tretten,,,,,Troms,Tretten,,Norway,1,no,,1,© OpenStreetMap contributors,Open Database License,https://www.openstreetmap.org/copyright
"Trollia, Eidsvågneset, Norway",60.4449402,5.2823801,"Eidsvågneset, Bergen, Norway",Eidsvågneset,Åsane,,5101,Eidsvågneset,Vestland,Bergen,,Norway,1,no,,0.5,© OpenStreetMap contributors,Open Database License,https://www.openstreetmap.org/copyright
"Tromøy, Norway",58.47206285,8.8663742213361,"Tromøya, 4812 Brekka, Norway",Tromøya,,,4812,,Agder,Brekka,,Norway,,no,,1,© OpenStreetMap contributors,Open Database License,https://www.openstreetmap.org/copyright
"Tromøya, Norway",58.47206285,8.8663742213361,"Tromøya, 4812 Brekka, Norway",Tromøya,,,4812,,Agder,Brekka,,Norway,1,no,,1,© OpenStreetMap contributors,Open Database License,https://www.openstreetmap.org/copyright
"Tromsø, Norway",69.6516345,18.9558585,"Tromsø, Norway",,,,,,Troms,Tromsø,,Norway,1,no,,1,© OpenStreetMap contributors,Open Database License,https://www.openstreetmap.org/copyright
"Trondheim, Norway",63.4304475,10.3952118,"Trondheim, Norway",,,,,,Trøndelag,Trondheim,,Norway,1,no,,1,© OpenStreetMap contributors,Open Database License,https://www.openstreetmap.org/copyright
"Tronstad, Innhavet, Norway",67.9633674,15.9307907,"Strávnjunnje - Innhavet (Strávnjunnje - Innhavet), Norway",Strávnjunnje - Innhavet,,,,,Nordland,Strávnjunnje - Innhavet,,Norway,1,no,,0.25,© OpenStreetMap contributors,Open Database License,https://www.openstreetmap.org/copyright
"Trygve Nilsensvei Oslo 10, Norway",59.974453,10.735045,"Oslo (Oslo), Oslo, Norway",,Oslo,,,,,Oslo,Oslo,Norway,1,no,,0.5,,,https://www.whosonfirst.org/docs/licenses/
"Trysil, Norway",61.3561472,12.36702596037586,"Trysil, Norway",,,,,,Innlandet,Trysil,,Norway,1,no,,1,© OpenStreetMap contributors,Open Database License,https://www.openstreetmap.org/copyright
"Tunsjøen, Norway",59.838967,11.362578,"Tunsjøen, Hølandsveien, Aurskog-Høland, Norway",Tunsjøen,,Hølandsveien,,Frogner,Akershus,Aurskog-Høland,,Norway,0.3969,no,,0.3969,© OpenStreetMap contributors,Open Database License,https://www.openstreetmap.org/copyright
"Tuv, Norway",60.8792476,8.4852637,"Tuv (Tuv), Norway",Tuv,,,,,Buskerud,Tuv,,Norway,1,no,,1,© OpenStreetMap contributors,Open Database License,https://www.openstreetmap.org/copyright
"Tveita, Norway",59.5687109,5.4141132,"Tveita (Tveita), Norway",Tveita,,,,,Vestland,Tveita,,Norway,1,no,,1,© OpenStreetMap contributors,Open Database License,https://www.openstreetmap.org/copyright
"Tvetenveien, Oslo, Norway",59.9300768,10.8644918,"Tvetenveien, 0675 Oslo, Norway",Tvetenveien,Bjerkly,Tvetenveien,0675,Alna,,Oslo,,Norway,1,no,1,1,© OpenStreetMap contributors,Open Database License,https://www.openstreetmap.org/copyright
"Tydal, Norway",62.97014335,11.821146128153032,"7590 Tydal, Norway",,,,7590,,Trøndelag,Tydal,,Norway,1,no,,1,© OpenStreetMap contributors,Open Database License,https://www.openstreetmap.org/copyright
"Tynset, Norway",62.360107049999996,10.532249364357114,"Tynset, Norway",,,,,,Innlandet,Tynset,,Norway,1,no,,1,© OpenStreetMap contributors,Open Database License,https://www.openstreetmap.org/copyright
"Tyrifjord, Norway",60.051481,10.262718,"Tyrifjord golfklubb, Hole, Viken, Norway",Tyrifjord golfklubb,,,,,,Hole,Viken,Norway,0.9,no,,0.9,© OpenStreetMap contributors,Open Database License,https://www.openstreetmap.org/copyright
"Tyristrand, Norway",60.0854616,10.0971643,"3533 Tyristrand (Tyristrand), Norway",Tyristrand,,,3533,,Buskerud,Tyristrand,,Norway,1,no,,1,© OpenStreetMap contributors,Open Database License,https://www.openstreetmap.org/copyright
"Ullern, Sør-Odal, Norway",60.2120856,11.6347146,"Ullern, Disenå, Norway",Ullern,,,,,Innlandet,Disenå,,Norway,1,no,,1,© OpenStreetMap contributors,Open Database License,https://www.openstreetmap.org/copyright
"Ulnes, Norway",60.9956599,9.1148552,"Ulnes, Nord-Aurdal, Norway",Ulnes,,,,Ulnes,Innlandet,Nord-Aurdal,,Norway,1,no,,1,© OpenStreetMap contributors,Open Database License,https://www.openstreetmap.org/copyright
"Ulset, Norway",63.033184,8.0115968,"6674 Ulset (Ulset), Norway",Ulset,,,6674,,Møre og Romsdal,Ulset,,Norway,1,no,,1,© OpenStreetMap contributors,Open Database License,https://www.openstreetmap.org/copyright
"Ulsetåsen, Åsane, Norway",60.4616757,5.3108174,"Ulsetåsen, 5119 Bergen, Norway",Ulsetåsen,Åsane,Ulsetåsen,5119,Åsane,Vestland,Bergen,,Norway,1,no,1,1,© OpenStreetMap contributors,Open Database License,https://www.openstreetmap.org/copyright
"Ulsrudvannet, Norway",59.88804,10.863248,"Ulsrudvannet, Oslo, Norway",,Oslo,Ulsrudvannet,,Bøler,,Oslo,Oslo,Norway,,no,,1,© OpenStreetMap contributors,Open Database License,https://www.openstreetmap.org/copyright